id,name,lat,lng,country,city,iata
3,Honiara International Airport,-9.428,160.054993,SB,Honiara,HIR
67,Port Moresby Jacksons International Airport,-9.443380355834961,147.22000122070312,PG,Port Moresby,POM
123,Keflavik International Airport,63.985001,-22.6056,IS,Reykjavík,KEF
1717,Edmonton International Airport,53.309700012200004,-113.580001831,CA,Edmonton,YEG
1770,Halifax / Stanfield International Airport,44.8807983398,-63.5085983276,CA,Halifax,YHZ
1840,Ottawa Macdonald-Cartier International Airport,45.3224983215332,-75.66919708251953,CA,Ottawa,YOW
1864,Quebec Jean Lesage International Airport,46.7911,-71.393303,CA,Quebec,YQB
1928,Montreal / Pierre Elliott Trudeau International Airport,45.4706001282,-73.7407989502,CA,Montréal,YUL
1941,Vancouver International Airport,49.193901062,-123.183998108,CA,Vancouver,YVR
1946,Winnipeg / James Armstrong Richardson International Airport,49.909999847399995,-97.2398986816,CA,Winnipeg,YWG
1969,Abbotsford International Airport,49.025299,-122.361,CA,Abbotsford,YXX
1973,Calgary International Airport,51.113899231,-114.019996643,CA,Calgary,YYC
1979,Victoria International Airport,48.6469,-123.426003,CA,Victoria,YYJ
1986,St. John's International Airport,47.618598938,-52.7518997192,CA,St. John's,YYT
1990,Lester B. Pearson International Airport,43.6772003174,-79.63059997559999,CA,Toronto,YYZ
2050,Houari Boumediene Airport,36.693886,3.214531,DZ,Algiers,ALG
2090,Kotoka International Airport,5.605189800262451,-0.16678600013256073,GH,Accra,ACC
2104,Nnamdi Azikiwe International Airport,9.006790161132812,7.263169765472412,NG,Abuja,ABV
2118,Murtala Muhammed International Airport,6.5773701667785645,3.321160078048706,NG,Lagos,LOS
2125,Diori Hamani International Airport,13.4815,2.18361,NE,Niamey,NIM
2133,Tunis Carthage International Airport,36.851002,10.2272,TN,Tunis,TUN
2155,Brussels Airport,50.901402,4.48444,BE,Zaventem,BRU
301881,Berlin Brandenburg Airport,52.362247,13.500672,DE,Berlin,BER
2212,Frankfurt Airport,50.036521,8.561268,DE,Frankfurt am Main,FRA
2214,Hamburg Helmut Schmidt Airport,53.630402,9.98823,DE,Hamburg,HAM
2216,Cologne Bonn Airport,50.865898,7.14274,DE,Köln (Cologne),CGN
2217,Düsseldorf Airport,51.289501,6.76678,DE,Düsseldorf,DUS
2218,Munich Airport,48.353802,11.7861,DE,Munich,MUC
2219,Nuremberg Airport,49.498699,11.078056,DE,Nuremberg,NUE
2220,Leipzig/Halle Airport,51.423889,12.236389,DE,Leipzig,LEJ
2222,Stuttgart Airport,48.689899444599995,9.22196006775,DE,Stuttgart,STR
2224,Hannover Airport,52.461101532,9.685079574580001,DE,Hannover,HAJ
2301,Lennart Meri Tallinn Airport,59.41329956049999,24.832799911499997,EE,Tallinn,TLL
2307,Helsinki Vantaa Airport,60.3172,24.963301,FI,Helsinki,HEL
2385,Belfast International Airport,54.6575012207,-6.2158298492399995,GB,Belfast,BFS
2389,Birmingham International Airport,52.453899383499994,-1.74802994728,GB,Birmingham,BHX
2398,Manchester Airport,53.349375,-2.279521,GB,Manchester,MAN
2419,London Luton Airport,51.874698638916016,-0.36833301186561584,GB,London,LTN
2429,London Gatwick Airport,51.148102,-0.190278,GB,London,LGW
2434,London Heathrow Airport,51.4706,-0.461941,GB,London,LHR
2461,Glasgow International Airport,55.871899,-4.43306,GB,"Paisley, Renfrewshire",GLA
2462,Edinburgh Airport,55.950145,-3.372288,GB,Edinburgh,EDI
2476,London Stansted Airport,51.8849983215,0.234999999404,GB,London,STN
2513,Amsterdam Airport Schiphol,52.308601,4.76389,NL,Amsterdam,AMS
2518,Eindhoven Airport,51.4500999451,5.37452983856,NL,Eindhoven,EIN
2533,Dublin Airport,53.421299,-6.27007,IE,Dublin,DUB
2537,Shannon Airport,52.702,-8.92482,IE,Shannon,SNN
2541,Billund Airport,55.7402992249,9.15178012848,DK,Billund,BLL
2542,Copenhagen Kastrup Airport,55.617900848389,12.656000137329,DK,Copenhagen,CPH
2563,Luxembourg-Findel International Airport,49.6233333,6.2044444,LU,Luxembourg,LUX
2570,"Bergen Airport, Flesland",60.2934,5.21814,NO,Bergen,BGO
2578,"Oslo Airport, Gardermoen",60.193901,11.1004,NO,Oslo,OSL
2599,"Tromsø Airport, Langnes",69.683296,18.9189,NO,Tromsø,TOS
2601,"Trondheim Airport, Værnes",63.457802,10.924,NO,Trondheim,TRD
2602,"Stavanger Airport, Sola",58.876701,5.63778,NO,Stavanger,SVG
2608,Gdańsk Lech Wałęsa Airport,54.377601623535156,18.46619987487793,PL,Gdańsk,GDN
2609,Kraków John Paul II International Airport,50.077702,19.7848,PL,Kraków,KRK
2637,Warsaw Chopin Airport,52.1656990051,20.967100143399996,PL,Warsaw,WAW
2648,Gothenburg-Landvetter Airport,57.662799835205,12.279800415039,SE,Gothenburg,GOT
2701,Stockholm-Arlanda Airport,59.651901245117,17.918600082397,SE,Stockholm,ARN
2758,Riga International Airport,56.923599,23.9711,LV,Riga,RIX
2766,Vilnius International Airport,54.634102,25.285801,LT,Vilnius,VNO
2775,Cape Town International Airport,-33.9648017883,18.6016998291,ZA,Cape Town,CPT
300795,King Shaka International Airport,-29.6144444444,31.1197222222,ZA,Durban,DUR
31055,OR Tambo International Airport,-26.1392,28.246,ZA,Johannesburg,JNB
2864,Sir Seretse Khama International Airport,-24.555201,25.9182,BW,Gaborone,GBE
308033,King Mswati III International Airport,-26.358611,31.716944,SZ,Mpaka,SHO
2878,Sir Seewoosagur Ramgoolam International Airport,-20.430201,57.683601,MU,Plaine Magnein,MRU
2894,Kenneth Kaunda International Airport,-15.330833,28.452722,ZM,Lusaka,LUN
2905,Roland Garros Airport,-20.8871,55.5103,RE,St Denis,RUN
2908,Ivato Airport,-18.7969,47.478802,MG,Antananarivo,TNR
2942,Quatro de Fevereiro International Airport,-8.85837,13.2312,AO,Luanda,LAD
2975,Maputo Airport,-25.920799,32.572601,MZ,Maputo,MPM
2993,Seychelles International Airport,-4.67434,55.521801,SC,Mahe Island,SEZ
2998,N'Djamena International Airport,12.1337,15.034,TD,N'Djamena,NDJ
3005,Robert Gabriel Mugabe International Airport,-17.931801,31.0928,ZW,Harare,HRE
3039,Hosea Kutako International Airport,-22.4799,17.4709,NA,Windhoek,WDH
3040,Ndjili International Airport,-4.38575,15.4446,CD,Kinshasa,FIH
3066,Modibo Keita International Airport,12.5335,-7.94994,ML,Bamako,BKO
3076,Banjul International Airport,13.338,-16.652201,GM,Banjul,BJL
3077,Fuerteventura Airport,28.4527,-13.8638,ES,El Matorral,FUE
3081,Gran Canaria Airport,27.9319,-15.3866,ES,Gran Canaria Island,LPA
3082,César Manrique-Lanzarote Airport,28.945499,-13.6052,ES,San Bartolomé,ACE
3083,Tenerife Sur Airport,28.0445,-16.5725,ES,Tenerife,TFS
3095,Lungi International Airport,8.61644,-13.1955,SL,Freetown (Lungi-Town),FNA
3099,Roberts International Airport,6.23379,-10.3623,LR,Monrovia,ROB
3113,Mohammed V International Airport,33.36750030517578,-7.589970111846924,MA,Casablanca,CMN
325736,Blaise Diagne International Airport,14.67,-17.073333,SN,Dakar,DSS
323315,Nouakchott–Oumtounsy International Airport,18.31,-15.9697222,MR,Nouakchott,NKC
3150,Amílcar Cabral International Airport,16.7414,-22.9494,CV,Espargos,SID
3157,Addis Ababa Bole International Airport,8.97789,38.799301,ET,Addis Ababa,ADD
3174,Djibouti-Ambouli Airport,11.5473,43.1595,DJ,Djibouti City,JIB
3183,Cairo International Airport,30.12190055847168,31.40559959411621,EG,Cairo,CAI
3186,Hurghada International Airport,27.180325,33.807292,EG,Hurghada,HRG
3198,Sharm El Sheikh International Airport,27.978902,34.385598,EG,Sharm El Sheikh,SSH
3247,Juba International Airport,4.87201,31.601101,SS,Juba,JUB
3206,Jomo Kenyatta International Airport,-1.31923997402,36.9277992249,KE,Nairobi,NBO
3213,Moi International Airport,-4.03483,39.5942,KE,Mombasa,MBA
3224,Mitiga International Airport,32.89177,13.287878,LY,Tripoli,MJI
3237,Kigali International Airport,-1.96863,30.1395,RW,Kigali,KGL
3249,Khartoum International Airport,15.5895,32.5532,SD,Khartoum,KRT
3251,Julius Nyerere International Airport,-6.87811,39.202599,TZ,Dar es Salaam,DAR
3260,Abeid Amani Karume International Airport,-6.22202,39.224899,TZ,Zanzibar,ZNZ
3263,Entebbe International Airport,0.042386,32.443501,UG,Kampala,EBB
3384,Hartsfield Jackson Atlanta International Airport,33.6367,-84.428101,US,Atlanta,ATL
3386,Austin Bergstrom International Airport,30.197535,-97.662015,US,Austin,AUS
3420,Nashville International Airport,36.1245002746582,-86.6781997680664,US,Nashville,BNA
3422,Logan International Airport,42.3643,-71.005203,US,Boston,BOS
3431,Buffalo Niagara International Airport,42.94049835,-78.73220062,US,Buffalo,BUF
3435,Baltimore/Washington International Thurgood Marshall Airport,39.1754,-76.668297,US,Baltimore,BWI
3454,Cleveland Hopkins International Airport,41.4117012024,-81.8498001099,US,Cleveland,CLE
3457,Charlotte Douglas International Airport,35.2140007019043,-80.94309997558594,US,Charlotte,CLT
3458,John Glenn Columbus International Airport,39.998001,-82.891899,US,Columbus,CMH
3471,Cincinnati Northern Kentucky International Airport,39.048801,-84.667801,US,Cincinnati / Covington,CVG
3483,Ronald Reagan Washington National Airport,38.8521,-77.037697,US,Washington,DCA
3486,Denver International Airport,39.861698150635,-104.672996521,US,Denver,DEN
3488,Dallas Fort Worth International Airport,32.896801,-97.038002,US,Dallas-Fort Worth,DFW
3497,Detroit Metropolitan Wayne County Airport,42.212398529052734,-83.35340118408203,US,Detroit,DTW
3521,Newark Liberty International Airport,40.692501,-74.168701,US,Newark,EWR
3531,Fort Lauderdale Hollywood International Airport,26.072599,-80.152702,US,Fort Lauderdale,FLL
3602,Washington Dulles International Airport,38.9445,-77.455803,US,"Washington, DC",IAD
3604,George Bush Intercontinental Houston Airport,29.984399795532227,-95.34140014648438,US,Houston,IAH
3610,Indianapolis International Airport,39.7173,-86.294403,US,Indianapolis,IND
3620,Jacksonville International Airport,30.49410057067871,-81.68789672851562,US,Jacksonville,JAX
3622,John F Kennedy International Airport,40.639447,-73.779317,US,New York,JFK
3631,Harry Reid International Airport,36.083361,-115.151817,US,Las Vegas,LAS
3632,Los Angeles International Airport,33.942501,-118.407997,US,Los Angeles,LAX
3643,La Guardia Airport,40.777199,-73.872597,US,New York,LGA
3668,Kansas City International Airport,39.2976,-94.713898,US,Kansas City,MCI
3670,Orlando International Airport,28.429399490356445,-81.30899810791016,US,Orlando,MCO
3673,Chicago Midway International Airport,41.785999,-87.752403,US,Chicago,MDW
3675,Memphis International Airport,35.04240036010742,-89.97669982910156,US,Memphis,MEM
3685,Miami International Airport,25.79319953918457,-80.29060363769531,US,Miami,MIA
3690,General Mitchell International Airport,42.947200775146484,-87.89659881591797,US,Milwaukee,MKE
3709,Minneapolis–Saint Paul International Airport / Wold–Chamberlain Field,44.882,-93.221802,US,Minneapolis,MSP
3711,Louis Armstrong New Orleans International Airport,29.99340057373047,-90.25800323486328,US,New Orleans,MSY
3744,Metropolitan Oakland International Airport,37.721298,-122.221001,US,Oakland,OAK
3752,Ontario International Airport,34.055999755859375,-117.60099792480469,US,Ontario,ONT
3754,Chicago O'Hare International Airport,41.9786,-87.9048,US,Chicago,ORD
3766,Palm Beach International Airport,26.68320083618164,-80.09559631347656,US,West Palm Beach,PBI
3768,Portland International Airport,45.58869934,-122.5979996,US,Portland,PDX
3771,Philadelphia International Airport,39.87189865112305,-75.24109649658203,US,Philadelphia,PHL
3772,Phoenix Sky Harbor International Airport,33.435302,-112.005905,US,Phoenix,PHX
3778,Pittsburgh International Airport,40.49150085,-80.23290253,US,Pittsburgh,PIT
3795,Theodore Francis Green State Airport,41.725038,-71.425668,US,Providence,PVD
3796,Portland International Jetport,43.646198,-70.309303,US,Portland,PWM
3844,Raleigh Durham International Airport,35.877601623535156,-78.7874984741211,US,Raleigh/Durham,RDU
3847,Richmond International Airport,37.50519943237305,-77.3197021484375,US,Richmond,RIC
3853,Reno Tahoe International Airport,39.49909973144531,-119.76799774169922,US,Reno,RNO
3858,Southwest Florida International Airport,26.53619956970215,-81.75520324707031,US,Fort Myers,RSW
3862,San Diego International Airport,32.7336006165,-117.190002441,US,San Diego,SAN
3863,San Antonio International Airport,29.533701,-98.469803,US,San Antonio,SAT
3864,Savannah Hilton Head International Airport,32.12760162,-81.20210266,US,Savannah,SAV
3873,Louisville Muhammad Ali International Airport,38.1744,-85.736,US,Louisville,SDF
3875,Seattle–Tacoma International Airport,47.449162,-122.311134,US,Seattle,SEA
3876,Orlando Sanford International Airport,28.777599334716797,-81.23750305175781,US,Orlando,SFB
3878,San Francisco International Airport,37.61899948120117,-122.375,US,San Francisco,SFO
3883,Norman Y. Mineta San Jose International Airport,37.362452,-121.929188,US,San Jose,SJC
3887,Salt Lake City International Airport,40.785749,-111.979746,US,Salt Lake City,SLC
3892,Sacramento International Airport,38.69540023803711,-121.59100341796875,US,Sacramento,SMF
3894,John Wayne Airport-Orange County Airport,33.675701,-117.867996,US,Santa Ana,SNA
3905,St Louis Lambert International Airport,38.748697,-90.370003,US,St Louis,STL
3913,Syracuse Hancock International Airport,43.11119842529297,-76.1063003540039,US,Syracuse,SYR
3926,Tampa International Airport,27.975500106811523,-82.533203125,US,Tampa,TPA
3930,Tulsa International Airport,36.19839859008789,-95.88809967041016,US,Tulsa,TUL
3972,Tirana International Airport Mother Teresa,41.4146995544,19.7206001282,AL,Tirana,TIA
3974,Burgas Airport,42.56959915161133,27.515199661254883,BG,Burgas,BOJ
3977,Sofia Airport,42.696693420410156,23.411436080932617,BG,Sofia,SOF
3979,Varna Airport,43.232101,27.8251,BG,Varna,VAR
3980,Larnaca International Airport,34.875099,33.624901,CY,Larnaca,LCA
3993,Zagreb Airport,45.7429008484,16.0687999725,HR,Zagreb,ZAG
3997,Alicante-Elche Miguel Hernández Airport,38.2822,-0.558156,ES,Alicante,ALC
4004,Josep Tarradellas Barcelona-El Prat Airport,41.2971,2.07846,ES,Barcelona,BCN
4013,Ibiza Airport,38.872898,1.37312,ES,Ibiza (Eivissa),IBZ
4019,Adolfo Suárez Madrid–Barajas Airport,40.471926,-3.56264,ES,Madrid,MAD
4020,Málaga-Costa del Sol Airport,36.6749,-4.49911,ES,Málaga,AGP
4035,Palma de Mallorca Airport,39.551701,2.73881,ES,Palma de Mallorca,PMI
4038,Santiago-Rosalía de Castro Airport,42.896301,-8.41514,ES,Santiago de Compostela,SCQ
4060,Bordeaux-Mérignac Airport,44.8283,-0.715556,FR,Bordeaux/Mérignac,BOD
4070,Toulouse-Blagnac Airport,43.629101,1.36382,FR,Toulouse/Blagnac,TLS
4137,Lyon Saint-Exupéry Airport,45.725556,5.081111,FR,Lyon,LYS
4155,Marseille Provence Airport,43.439271922,5.22142410278,FR,Marseille,MRS
4156,Nice-Côte d'Azur Airport,43.6584014893,7.215869903560001,FR,Nice,NCE
4185,Charles de Gaulle International Airport,49.012798,2.55,FR,Paris,CDG
4189,Paris-Orly Airport,48.7233333,2.3794444,FR,Paris,ORY
4226,EuroAirport Basel-Mulhouse-Freiburg Airport,47.59,7.529167,FR,Bâle/Mulhouse,BSL
4251,Athens Eleftherios Venizelos International Airport,37.936401,23.9445,GR,Athens,ATH
4258,Heraklion International Nikos Kazantzakis Airport,35.3396987915,25.180299758900002,GR,Heraklion,HER
4293,Thessaloniki Macedonia International Airport,40.51969909667969,22.97089958190918,GR,Thessaloniki,SKG
4296,Budapest Liszt Ferenc International Airport,47.42976,19.261093,HU,Budapest,BUD
4310,Bari Karol Wojtyła Airport,41.138901,16.760599,IT,Bari,BRI
4315,Brindisi Airport,40.6576,17.947001,IT,Brindisi,BDS
4318,Catania-Fontanarossa Airport,37.466801,15.0664,IT,Catania,CTA
4321,Falcone–Borsellino Airport,38.175999,13.091,IT,Palermo,PMO
4332,Cagliari Elmas Airport,39.251499,9.05428,IT,Cagliari,CAG
4340,Malpensa International Airport,45.6306,8.72811,IT,Milan,MXP
4341,Milan Bergamo Airport,45.673901,9.70417,IT,Milan,BGY
4342,Turin Airport,45.200802,7.64963,IT,Torino,TRN
4354,Bologna Guglielmo Marconi Airport,44.5354,11.2887,IT,Bologna,BLQ
4366,Verona-Villafranca Valerio Catullo Airport,45.394955,10.887303,IT,Villafranca di Verona,VRN
4368,Venice Marco Polo Airport,45.505299,12.3519,IT,Venice,VCE
4372,Rome–Fiumicino Leonardo da Vinci International Airport,41.804532,12.251998,IT,Rome,FCO
4378,Naples International Airport,40.886002,14.2908,IT,Nápoli,NAP
4379,Pisa International Airport,43.683899,10.3927,IT,Pisa,PSA
4386,Ljubljana Jože Pučnik Airport,46.223701,14.4576,SI,Ljubljana,LJU
4408,Václav Havel Airport Prague,50.1008,14.26,CZ,Prague,PRG
4411,Ben Gurion International Airport,32.01139831542969,34.88669967651367,IL,Tel Aviv,TLV
330388,Ramon International Airport,29.727009,35.014116,IL,Eilat,ETM
4427,Malta International Airport,35.857498,14.4775,MT,Valletta,MLA
4434,Vienna International Airport,48.110298,16.5697,AT,Vienna,VIE
4448,Faro Airport,37.0144004822,-7.96590995789,PT,Faro,FAO
4456,João Paulo II Airport,37.7411994934,-25.6979007721,PT,Ponta Delgada,PDL
4459,Francisco de Sá Carneiro Airport,41.2481002808,-8.68138980865,PT,Porto,OPO
4461,Humberto Delgado Airport (Lisbon Portela Airport),38.7813,-9.13592,PT,Lisbon,LIS
4482,Henri Coandă International Airport,44.571111,26.085,RO,Bucharest,OTP
4490,Geneva Cointrin International Airport,46.23809814453125,6.108950138092041,CH,Geneva,GVA
4505,Zürich Airport,47.458056,8.548056,CH,Zurich,ZRH
4509,Esenboğa International Airport,40.128101348899996,32.995098114,TR,Ankara,ESB
4515,Antalya International Airport,36.898701,30.800501,TR,Antalya,AYT
4528,İstanbul Atatürk Airport,40.971913,28.823714,TR,"Bakırköy, Istanbul",ISL
4533,Adnan Menderes International Airport,38.2924,27.157,TR,İzmir,ADB
4542,Dalaman International Airport,36.7131004333,28.7924995422,TR,Dalaman,DLM
4567,Milas Bodrum International Airport,37.25059890749999,27.6643009186,TR,Bodrum,BJV
4569,Istanbul Sabiha Gökçen International Airport,40.898602,29.3092,TR,"Pendik, Istanbul",SAW
317457,İstanbul Airport,41.261297,28.741951,TR,"Arnavutköy, Istanbul",IST
4573,Skopje International Airport,41.961601,21.621401,MK,Skopje,SKP
4610,Belgrade Nikola Tesla Airport,44.818401,20.309099,RS,Belgrade,BEG
4613,Podgorica Airport / Podgorica Golubovci Airbase,42.359402,19.2519,ME,Podgorica,TGD
4617,M. R. Štefánik Airport,48.17020034790039,17.21269989013672,SK,Bratislava,BTS
4628,Providenciales International Airport,21.773697,-72.268321,TC,Providenciales,PLS
4636,Punta Cana International Airport,18.567399978599997,-68.36340332030001,DO,Punta Cana,PUJ
4638,Las Américas International Airport,18.42970085144,-69.668899536133,DO,Santo Domingo,SDQ
4644,La Aurora Airport,14.5833,-90.527496,GT,Guatemala City,GUA
4680,Norman Manley International Airport,17.935699462890625,-76.7874984741211,JM,Kingston,KIN
4688,General Juan N Alvarez International Airport,16.757099,-99.753998,MX,Acapulco,ACA
4710,Don Miguel Hidalgo y Costilla International Airport,20.521799,-103.310997,MX,Guadalajara,GDL
4713,General Ignacio P. Garcia International Airport,29.095899581900003,-111.047996521,MX,Hermosillo,HMO
4731,Licenciado Benito Juarez International Airport,19.4363,-99.072098,MX,Mexico City,MEX
4733,General Rafael Buelna International Airport,23.1614,-106.265999,MX,Mazatlán,MZT
4745,President Gustavo Díaz Ordaz International Airport,20.680099,-105.253998,MX,Puerto Vallarta,PVR
4750,Los Cabos International Airport,23.1518,-109.721001,MX,San José del Cabo,SJD
4757,General Abelardo L. Rodríguez International Airport,32.541099548339844,-116.97000122070312,MX,Tijuana,TIJ
4762,Cancún International Airport,21.036500930800003,-86.8770980835,MX,Cancún,CUN
4793,Tocumen International Airport,9.0713596344,-79.3834991455,PA,Tocumen,PTY
4806,Guanacaste Airport,10.5933,-85.544403,CR,Liberia,LIR
4820,Monseñor Óscar Arnulfo Romero International Airport,13.4409,-89.055702,SV,San Salvador (San Luis Talpa),SAL
4825,Toussaint Louverture International Airport,18.58,-72.292503,HT,Port-au-Prince,PAP
4839,José Martí International Airport,22.989200592041016,-82.40910339355469,CU,Havana,HAV
4859,Juan Gualberto Gomez International Airport,23.034400939941406,-81.435302734375,CU,Varadero,VRA
4862,Owen Roberts International Airport,19.292800903299998,-81.3576965332,KY,Georgetown,GCM
4951,Lynden Pindling International Airport,25.039,-77.466202,BS,Nassau,NAS
4956,Philip S. W. Goldson International Airport,17.539951,-88.303556,BZ,Belize City,BZE
4979,Faa'a International Airport,-17.553699,-149.606995,PF,Papeete,PPT
5011,Bauerfield International Airport,-17.699301,168.320007,VU,Port Vila,VLI
5017,Nouméa Magenta Airport,-22.258301,166.473007,NC,Nouméa,GEA
5023,Auckland International Airport,-37.01199,174.786331,NZ,Auckland,AKL
5026,Christchurch International Airport,-43.48939895629883,172.53199768066406,NZ,Christchurch,CHC
5063,Wellington International Airport,-41.3272018433,174.804992676,NZ,Wellington,WLG
5079,Bahrain International Airport,26.267295,50.63764,BH,Manama,BAH
5087,King Fahd International Airport,26.471200942993164,49.79790115356445,SA,Ad Dammam,DMM
5097,King Abdulaziz International Airport,21.6796,39.156502,SA,Jeddah,JED
5101,Prince Mohammad Bin Abdulaziz Airport,24.5534,39.705101,SA,Medina,MED
5112,King Khaled International Airport,24.957599639892578,46.69879913330078,SA,Riyadh,RUH
5166,Imam Khomeini International Airport,35.416099548339844,51.152198791503906,IR,Tehran,IKA
5168,Mehrabad International Airport,35.68920135498047,51.31340026855469,IR,Tehran,THR
5183,Mashhad International Airport,36.235198974609375,59.64099884033203,IR,Mashhad,MHD
5197,Shiraz Shahid Dastghaib International Airport,29.5392,52.589802,IR,Shiraz,SYZ
5212,Queen Alia International Airport,31.7226009369,35.9931983948,JO,Amman,AMM
5220,Kuwait International Airport,29.226600646972656,47.96889877319336,KW,Kuwait City,KWI
5222,Beirut Rafic Hariri International Airport,33.820899963378906,35.488399505615234,LB,Beirut,BEY
299738,Duqm International Airport,19.501944,57.634167,OM,Duqm,DQM
5226,Abu Dhabi International Airport,24.443764,54.651718,AE,Abu Dhabi,AUH
5235,Dubai International Airport,25.2527999878,55.3643989563,AE,Dubai,DXB
300320,Al Maktoum International Airport,24.896356,55.161389,AE,Jebel Ali,DWC
5239,Sharjah International Airport,25.32859992980957,55.5172004699707,AE,Sharjah,SHJ
5242,Muscat International Airport,23.593299865722656,58.284400939941406,OM,Muscat,MCT
333692,Islamabad International Airport,33.549,72.82566,PK,Islamabad,ISB
5255,Jinnah International Airport,24.9065,67.160797,PK,Karachi,KHI
5257,Allama Iqbal International Airport,31.521601,74.403603,PK,Lahore,LHE
5289,Baghdad International Airport / New Al Muthana Air Base,33.262501,44.2346,IQ,Baghdad,BGW
5303,Damascus International Airport,33.4114990234375,36.51559829711914,SY,Damascus,DAM
44686,Hamad International Airport,25.273056,51.608056,QA,Doha,DOH
5360,Fairbanks International Airport,64.81510162,-147.8560028,US,Fairbanks,FAI
5388,Ted Stevens Anchorage International Airport,61.1744,-149.996002,US,Anchorage,ANC
5433,Antonio B. Won Pat International Airport,13.4834,144.796005,GU,Hagåtña,GUM
5453,Daniel K Inouye International Airport,21.32062,-157.924228,US,Honolulu,HNL
5516,Kaohsiung International Airport,22.577101,120.349998,TW,Kaohsiung (Xiaogang),KHH
5528,Taiwan Taoyuan International Airport,25.0777,121.233002,TW,Taoyuan (Dayuan),TPE
5531,Narita International Airport,35.764702,140.386002,JP,Narita,NRT
5536,Kansai International Airport,34.427299,135.244003,JP,Osaka,KIX
5544,New Chitose Airport,42.7752,141.692001,JP,Sapporo,CTS
5564,Fukuoka Airport,33.585899353027344,130.4510040283203,JP,Fukuoka,FUK
5566,Kagoshima Airport,31.80340003967285,130.718994140625,JP,Kagoshima,KOJ
5576,Chubu Centrair International Airport,34.8583984375,136.80499267578125,JP,Tokoname,NGO
5598,Osaka International Airport,34.785499572753906,135.43800354003906,JP,Osaka,ITM
5615,Sendai Airport,38.139702,140.917007,JP,Natori,SDJ
5627,Tokyo Haneda International Airport,35.552299,139.779999,JP,Tokyo,HND
302303,Muan International Airport,34.991406,126.382814,KR,Piseo-ri (Muan),MWX
5639,Jeju International Airport,33.512058,126.492548,KR,Jeju City,CJU
5642,Gimhae International Airport,35.179501,128.938004,KR,Busan,PUS
5653,Incheon International Airport,37.46910095214844,126.45099639892578,KR,Seoul,ICN
5656,Gimpo International Airport,37.5583,126.791,KR,Seoul,GMP
5671,Naha Airport / JASDF Naha Air Base,26.195801,127.646004,JP,Naha,OKA
5689,Ninoy Aquino International Airport,14.5086,121.019997,PH,Manila,MNL
5697,Francisco Bangoy International Airport,7.12552,125.646004,PH,Davao,DVO
5742,Mactan Cebu International Airport,10.307499885559,123.97899627686,PH,Lapu-Lapu City,CEB
5771,Jorge Newbery Airpark,-34.5592,-58.4156,AR,Buenos Aires,AEP
5781,Ministro Pistarini International Airport,-34.8222,-58.5358,AR,Buenos Aires (Ezeiza),EZE
5867,Val de Cans/Júlio Cezar Ribeiro International Airport,-1.379279,-48.476207,BR,Belém,BEL
5872,Presidente Juscelino Kubitschek International Airport,-15.869167,-47.920834,BR,Brasília,BSB
5882,Tancredo Neves International Airport,-19.63571,-43.966928,BR,Belo Horizonte,CNF
5897,Eduardo Gomes International Airport,-3.03861,-60.049702,BR,Manaus,MAO
5901,Hercílio Luz International Airport,-27.670279,-48.552502,BR,Florianópolis,FLN
5906,Rio Galeão – Tom Jobim International Airport,-22.809999,-43.250557,BR,Rio De Janeiro,GIG
5910,Guarulhos - Governador André Franco Montoro International Airport,-23.431944,-46.467778,BR,São Paulo,GRU
5977,Deputado Luiz Eduardo Magalhães International Airport,-12.908611,-38.322498,BR,Salvador,SSA
6015,Comodoro Arturo Merino Benítez International Airport,-33.393001556396484,-70.78579711914062,CL,Santiago,SCL
6056,José Joaquín de Olmedo International Airport,-2.15742,-79.883598,EC,Guayaquil,GYE
308273,Mariscal Sucre International Airport,-0.129166666667,-78.3575,EC,Quito,UIO
6104,El Dorado International Airport,4.70159,-74.1469,CO,Bogota,BOG
6193,Viru Viru International Airport,-17.6448,-63.135399,BO,Santa Cruz,VVI
6195,Johan Adolf Pengel International Airport,5.45283,-55.187801,SR,Zandery,PBM
6198,Cayenne – Félix Eboué Airport,4.819964,-52.361326,GF,Matoury,CAY
6217,Jorge Chávez International Airport,-12.0219,-77.114305,PE,Lima,LIM
6243,Alejandro Velasco Astete International Airport,-13.535699844400002,-71.9387969971,PE,Cusco,CUZ
6247,Carrasco International /General C L Berisso Airport,-34.838402,-56.0308,UY,Montevideo,MVD
6255,General José Antonio Anzoategui International Airport,10.111111,-64.692222,VE,Barcelona,BLA
6300,Simón Bolívar International Airport,10.601194,-66.991222,VE,Caracas,CCS
342096,Qingdao Jiaodong International Airport,36.361953,120.088171,CN,"Jiaozhou, Qingdao",TAO
6363,Martinique Aimé Césaire International Airport,14.591,-61.003201,MQ,Fort-de-France,FDF
6366,Pointe-à-Pitre Le Raizet International  Airport,16.265301,-61.531799,GP,Pointe-à-Pitre,PTP
6384,Luis Munoz Marin International Airport,18.4393997192,-66.0018005371,PR,San Juan,SJU
6389,Hewanorra International Airport,13.7332,-60.952599,LC,Vieux Fort,UVF
6402,Queen Beatrix International Airport,12.5014,-70.015198,AW,Oranjestad,AUA
6403,Flamingo International Airport,12.131,-68.268501,BQ,"Kralendijk, Bonaire",BON
6404,Hato International Airport,12.1889,-68.959801,CW,Willemstad,CUR
6406,Princess Juliana International Airport,18.041,-63.108898,SX,Saint Martin,SXM
6421,Almaty International Airport,43.354267,77.042828,KZ,Almaty,ALA
6423,Nursultan Nazarbayev International Airport,51.022202,71.466904,KZ,Nur-Sultan,NQZ
6426,Manas International Airport,43.0612983704,74.4776000977,KG,Bishkek,FRU
337747,Hazrat Sultan International Airport,43.313126,68.549881,KZ,,HSA
6440,Heydar Aliyev International Airport,40.467498779296875,50.04669952392578,AZ,Baku,GYD
6446,Zvartnots International Airport,40.1473007202,44.3959007263,AM,Yerevan,EVN
6453,Tbilisi International Airport,41.6692008972,44.95470047,GE,Tbilisi,TBS
6462,Vladivostok International Airport,43.396256,132.148155,RU,Artyom,VVO
6467,Boryspil International Airport,50.345001,30.894699,UA,Kiev,KBP
6481,Lviv International Airport,49.8125,23.9561,UA,Lviv,LWO
6489,Pulkovo Airport,59.80030059814453,30.262500762939453,RU,St. Petersburg,LED
6501,Minsk National Airport,53.888071,28.039964,BY,Minsk,MSQ
6506,Krasnoyarsk International Airport,56.173077,92.492437,RU,Krasnoyarsk,KJA
6507,Novosibirsk Tolmachevo Airport,55.019756,82.618675,RU,Novosibirsk,OVB
326363,Platov International Airport,47.493888,39.924722,RU,Rostov-on-Don,ROV
6519,Sochi International Airport,43.449902,39.9566,RU,Sochi,AER
26378,Koltsovo Airport,56.743099212646,60.802700042725,RU,Yekaterinburg,SVX
26380,Ashgabat International Airport,37.986801,58.361,TM,Ashgabat,ASB
26392,Tashkent International Airport,41.257900238,69.2811965942,UZ,Tashkent,TAS
42967,Zhukovsky International Airport,55.553299,38.150002,RU,Moscow,ZIA
26394,Domodedovo International Airport,55.40879821777344,37.90629959106445,RU,Moscow,DME
26396,Sheremetyevo International Airport,55.972599,37.4146,RU,Moscow,SVO
26401,Vnukovo International Airport,55.5914993286,37.2615013123,RU,Moscow,VKO
26404,Kazan International Airport,55.606201171875,49.278701782227,RU,Kazan,KZN
339001,Gagarin International Airport,51.712778,46.171111,RU,Saratov,GSV
26411,Ufa International Airport,54.557498931885,55.874401092529,RU,Ufa,UFA
26412,Kurumoch International Airport,53.504901885986,50.16429901123,RU,Samara,KUF
26434,Chhatrapati Shivaji International Airport,19.0886993408,72.8678970337,IN,Mumbai,BOM
26444,Dabolim Airport,15.3808,73.831398,IN,Vasco da Gama,GOI
26463,Bandaranaike International Colombo Airport,7.180759906768799,79.88410186767578,LK,Colombo,CMB
309579,Mattala Rajapaksa International Airport,6.284467,81.124128,LK,,HRI
26475,Phnom Penh International Airport,11.5466,104.844002,KH,Phnom Penh (Pou Senchey),PNH
26476,Siem Reap International Airport,13.41155,103.813044,KH,Siem Reap,REP
26496,Netaji Subhash Chandra Bose International Airport,22.654699325561523,88.44670104980469,IN,Kolkata,CCU
26534,Hazrat Shahjalal International Airport,23.843347,90.397783,BD,Dhaka,DAC
26535,Hong Kong International Airport,22.308901,113.915001,HK,Hong Kong,HKG
26555,Indira Gandhi International Airport,28.55563,77.09519,IN,New Delhi,DEL
26589,Macau International Airport,22.149599,113.592003,MO,Freguesia de Nossa Senhora do Carmo (Taipa),MFM
26596,Tribhuvan International Airport,27.6966,85.3591,NP,Kathmandu,KTM
35145,Kempegowda International Airport,13.1979,77.706299,IN,Bangalore,BLR
26609,Cochin International Airport,10.152,76.401901,IN,Kochi,COK
35141,Rajiv Gandhi International Airport,17.231318,78.429855,IN,Hyderabad,HYD
26618,Chennai International Airport,12.990005,80.169296,IN,Chennai,MAA
26629,Trivandrum International Airport,8.48211956024,76.9200973511,IN,Thiruvananthapuram,TRV
26636,Malé International Airport,4.191830158233643,73.52909851074219,MV,Malé,MLE
26638,Don Mueang International Airport,13.9125995636,100.607002258,TH,Bangkok,DMK
28118,Suvarnabhumi Airport,13.681099891662598,100.74700164794922,TH,Bangkok,BKK
26647,Chiang Mai International Airport,18.766799926799997,98.962600708,TH,Chiang Mai,CNX
26674,Phuket International Airport,8.1132,98.316902,TH,Phuket,HKT
26700,Noi Bai International Airport,21.221201,105.806999,VN,Hanoi (Soc Son),HAN
26708,Tan Son Nhat International Airport,10.8188,106.652,VN,Ho Chi Minh City,SGN
26727,Mandalay International Airport,21.702199935913086,95.97789764404297,MM,Mandalay,MDL
26744,Yangon International Airport,16.907300949099998,96.1332015991,MM,Yangon,RGN
26745,Hasanuddin International Airport,-5.06163,119.554001,ID,Ujung Pandang,UPG
26751,Ngurah Rai (Bali) International Airport,-8.74817,115.167,ID,Denpasar,DPS
26755,Dortheys Hiyo Eluay International Airport,-2.579627,140.519857,ID,Sentani,DJJ
26789,Juanda International Airport,-7.37983,112.787003,ID,Surabaya,SUB
26819,Brunei International Airport,4.9442,114.928001,BN,Bandar Seri Begawan,BWN
26835,Soekarno-Hatta International Airport,-6.1255698204,106.65599823,ID,Jakarta,CGK
26874,Kuala Lumpur International Airport,2.745579957962,101.70999908447,MY,Kuala Lumpur,KUL
26887,Singapore Changi Airport,1.35019,103.994003,SG,Singapore,SIN
26901,Brisbane International Airport,-27.384199142456055,153.11700439453125,AU,Brisbane,BNE
27066,Melbourne International Airport,-37.673302,144.843002,AU,Melbourne,MEL
332096,Yantai Penglai International Airport,37.659724,120.978124,CN,Yantai,YNT
27096,Adelaide International Airport,-34.947512,138.533393,AU,Adelaide,ADL
27119,Perth International Airport,-31.94029998779297,115.96700286865234,AU,Perth,PER
27145,Sydney Kingsford Smith International Airport,-33.94609832763672,151.177001953125,AU,Sydney,SYD
27188,Beijing Capital International Airport,40.080101013183594,116.58499908447266,CN,Beijing,PEK
330820,Beijing Daxing International Airport,39.509945,116.41092,CN,Beijing,PKX
27189,Hohhot Baita International Airport,40.849658,111.824598,CN,Hohhot,HET
27192,Tianjin Binhai International Airport,39.124401092499994,117.346000671,CN,Tianjin,TSN
27193,Taiyuan Wusu Airport,37.746899,112.627998,CN,Taiyuan,TYN
27194,Guangzhou Baiyun International Airport,23.392401,113.299004,CN,Guangzhou (Huadu),CAN
27195,Changsha Huanghua International Airport,28.189199,113.220001,CN,Changsha (Changsha),CSX
27196,Guilin Liangjiang International Airport,25.219828,110.039553,CN,Guilin (Lingui),KWL
27197,Nanning Wuxu Airport,22.608299,108.171997,CN,Nanning (Jiangnan),NNG
27198,Shenzhen Bao'an International Airport,22.639299,113.810997,CN,Shenzhen (Bao'an),SZX
27199,Zhengzhou Xinzheng International Airport,34.526497,113.849165,CN,Zhengzhou,CGO
27200,Wuhan Tianhe International Airport,30.774798,114.213723,CN,Wuhan (Huangpi),WUH
27201,Haikou Meilan International Airport,19.9349,110.459,CN,Haikou (Meilan),HAK
27202,Sanya Phoenix International Airport,18.3029,109.412003,CN,Sanya (Tianya),SYX
27204,Lanzhou Zhongchuan International Airport,36.515202,103.620003,CN,Lanzhou (Yongdeng),LHW
27205,Xi'an Xianyang International Airport,34.447102,108.751999,CN,Xianyang (Weicheng),XIY
335326,Ulaanbaatar Chinggis Khaan International Airport,47.646916,106.819833,MN,Ulaanbaatar (Sergelen),UBN
27214,Kunming Changshui International Airport,25.110313,102.936743,CN,Kunming,KMG
27215,Xiamen Gaoqi International Airport,24.54400062561035,118.12799835205078,CN,Xiamen,XMN
27216,Nanchang Changbei International Airport,28.864815,115.90271,CN,Nanchang,KHN
27218,Hangzhou Xiaoshan International Airport,30.23609,120.428865,CN,Hangzhou,HGH
27219,Jinan Yaoqiang International Airport,36.857201,117.216003,CN,Jinan,TNA
27220,Ningbo Lishe International Airport,29.82670021057129,121.46199798583984,CN,Ningbo,NGB
27221,Nanjing Lukou International Airport,31.735032,118.865949,CN,Nanjing,NKG
27223,Shanghai Pudong International Airport,31.1434,121.805,CN,Shanghai (Pudong),PVG
27225,Shanghai Hongqiao International Airport,31.198104,121.33426,CN,Shanghai (Minhang),SHA
32672,Wenzhou Longwan International Airport,27.912201,120.851997,CN,Wenzhou,WNZ
27228,Chongqing Jiangbei International Airport,29.712254,106.651895,CN,Chongqing,CKG
27229,Guiyang Longdongbao International Airport,26.541466,106.803331,CN,Guiyang (Nanming),KWE
342095,Chengdu Tianfu International Airport,30.31252,104.441284,CN,Chengdu (Jianyang),TFU
27230,Chengdu Shuangliu International Airport,30.558257,103.945966,CN,Chengdu (Shuangliu),CTU
27236,Ürümqi Diwopu International Airport,43.907100677490234,87.47419738769531,CN,Ürümqi,URC
27237,Changchun Longjia International Airport,43.996201,125.684998,CN,Changchun,CGQ
27238,Harbin Taiping International Airport,45.623402,126.25,CN,Harbin,HRB
27242,Dalian Zhoushuizi International Airport,38.965698,121.539001,CN,"Ganjingzi, Dalian",DLC
27243,Shenyang Taoxian International Airport,41.639801,123.483002,CN,"Hunnan, Shenyang",SHE
12243,Aleknagik / New Airport,59.2826004028,-158.617996216,US,Aleknagik,WKK
4,Munda Airport,-8.32797,157.263,SB,Munda,MUA
8,Nauru International Airport,-0.547458,166.919006,NR,Yaren District,INU
314558,Alxa Left Banner Bayanhot Airport,38.74831,105.58858,CN,Bayanhot,AXF
53,Buka Airport,-5.4223198890686035,154.67300415039062,PG,Buka Island,BUA
54,Chimbu Airport,-6.024290084838867,144.9709930419922,PG,Kundiawa,CMU
55,Daru Airport,-9.08675956726,143.207992554,PG,Daru,DAU
56,Goroka Airport,-6.081689834590001,145.391998291,PG,Goronka,GKA
57,Gurney Airport,-10.3114995956,150.333999634,PG,Gurney,GUR
58,Girua Airport,-8.80453968048,148.309005737,PG,Popondetta,PNP
59,Hoskins Airport,-5.463846,150.407327,PG,Kimbe,HKN
60,Kerema Airport,-7.96361017227,145.770996094,PG,Kerema,KMA
61,Kavieng Airport,-2.57940006256,150.807998657,PG,Kavieng,KVG
62,Madang Airport,-5.20707988739,145.789001465,PG,Madang,MAG
63,Mount Hagen Kagamuga Airport,-5.828212,144.299412,PG,Mount Hagen,HGU
64,Mendi Airport,-6.14774,143.656998,PG,Mendi,MDU
65,Momote Airport,-2.06189,147.423996,PG,Manus Island,MAS
66,Nadzab Airport,-6.569803,146.725977,PG,Lae,LAE
68,Tokua Airport,-4.34046,152.380005,PG,Kokopo,RAB
69,Vanimo Airport,-2.6926,141.3028,PG,Vanimo,VAI
70,Wapenamanda Airport,-5.635293,143.892231,PG,Wapenamanda,WBM
71,Wewak International Airport,-3.58383011818,143.669006348,PG,Wewak,WWK
27301,Benguera Island Airport,-21.853300094604492,35.43830108642578,MZ,Benguera Island,BCW
31697,Aasiaat Airport,68.721802,-52.784698,GL,Aasiaat,JEG
113,Narsarsuaq Airport,61.1605,-45.425999,GL,Narsarsuaq,UAK
114,Nuuk Airport,64.193022,-51.676512,GL,Nuuk,GOH
31786,Kulusuk Airport,65.573601,-37.1236,GL,Kulusuk,KUS
115,Kangerlussuaq Airport,67.010446,-50.715294,GL,Kangerlussuaq,SFJ
31700,Sisimiut Airport,66.951302,-53.729301,GL,Sisimiut,JHS
116,Thule Air Base,76.5311965942,-68.7032012939,GL,Thule,THU
117,Akureyri Airport,65.66000366210938,-18.07270050048828,IS,Akureyri,AEY
119,Egilsstaðir Airport,65.2833023071289,-14.401399612426758,IS,Egilsstaðir,EGS
120,Hornafjörður Airport,64.295601,-15.2272,IS,Höfn,HFN
121,Húsavík Airport,65.952301,-17.426001,IS,Húsavík,HZK
122,Ísafjörður Airport,66.05809783935547,-23.135299682617188,IS,Ísafjörður,IFJ
125,Reykjavik Airport,64.1299972534,-21.9405994415,IS,Reykjavik,RKV
4614,Priština Adem Jashari International Airport,42.5728,21.035801,XK,Prishtina,PRN
333222,Glauber de Andrade Rocha Airport,-14.907885,-40.914804,BR,Vitória da Conquista,VDC
42216,Big Creek Airport,16.519369,-88.407913,BZ,Big Creek,BGK
30861,Caye Caulker Airport,17.735015,-88.032862,BZ,Caye Caulker,CUK
30867,Caye Chapel Airport,17.683792,-88.044985,BZ,Caye Chapel,CYC
42209,Corozal Municipal Airport,18.382200241088867,-88.41190338134766,BZ,Corozal,CZH
42207,Dangriga Airport,16.98251,-88.230988,BZ,Dangriga,DGA
42217,Placencia Airport,16.536956787109375,-88.36151123046875,BZ,Placencia,PLJ
35305,Punta Gorda Airport,16.102399826,-88.80829620360001,BZ,Punta Gorda,PND
42210,Sartaneja Airport,18.35610008239746,-88.13079833984375,BZ,Sartaneja,SJX
32370,John Greif II Airport,17.9139,-87.9711,BZ,San Pedro,SPR
42215,Sir Barry Bowen Municipal Airport,17.517239,-88.195775,BZ,Belize City,TZA
320060,Bamfield Airstrip,48.8206,-125.1193,CA,Bamfield,
624,Anahim Lake Airport,52.451501,-125.303776,CA,Anahim Lake,YAA
657,Cache Creek-Ashcroft Regional Airport,50.775258,-121.321314,CA,Cache Creek,YZA
664,Bella Bella (Campbell Island) Airport,52.185001,-128.156994,CA,Bella Bella,ZEL
44100,Zhangjiakou Ningyuan Airport,40.738602,114.93,CN,Zhangjiakou,ZQZ
44103,Baoshan Yunrui Airport,25.053301,99.168297,CN,Baoshan (Longyang),BSD
44116,Lincang Boshang Airport,23.7381,100.025002,CN,Lincang,LNJ
44122,Xigaze Peace Airport / Shigatse Air Base,29.3519,89.311401,CN,Xigazê (Samzhubzê),RKZ
44126,Panzhihua Bao'anying Airport,26.54,101.79852,CN,Panzhihua (Renhe),PZI
44139,Foshan Shadi Airport,23.0833,113.07,CN,Foshan (Nanhai),FUO
323907,Xinyang Minggang Airport,32.540819,114.079141,CN,Xinyang,XAI
44146,Huizhou Pingtan Airport,23.049999,114.599998,CN,Huizhou (Pingtan),HUZ
44157,Shaoguan Danxia Airport,24.9786,113.420998,CN,Shaoguan,HSC
44159,Jinggangshan Airport,26.856899,114.737,CN,Ji'an,JGS
44160,Baise Youjiang Airport,23.7206,106.959999,CN,Baise (Tianyang),AEB
44167,Lianyungang Huaguoshan International Airport,34.41406,119.17899,CN,Lianyungang,LYG
44191,Altay Xuedu Airport,47.749886,88.085808,CN,Altay,AAT
44208,Tianshui Maijishan Airport,34.559399,105.860001,CN,Tianshui (Maiji),THQ
44267,Dandong Langtou Airport,40.0247,124.286003,CN,"Zhenxing, Dandong",DDG
354995,Zhanjiang Wuchuan Airport,21.481667,110.590278,CN,Zhanjiang,ZHA
32048,Nantong Xingdong International Airport,32.070801,120.975998,CN,Nantong,NTG
44646,Lefkoniko Airport / Geçitkale Air Base,35.235947,33.724358,CY,Geçitkale,GEC
1652,Cat Lake Airport,51.72719955444336,-91.82440185546875,CA,Cat Lake,YAC
1654,Fort Frances Municipal Airport,48.655749,-93.44349,CA,Fort Frances,YAG
1656,Alert Bay Airport,50.582199,-126.916,CA,Alert Bay,YAL
1657,Sault Ste Marie Airport,46.485001,-84.509399,CA,Sault Ste Marie,YAM
1658,Kasabonika Airport,53.52470016479492,-88.6427993774414,CA,Kasabonika,XKS
1659,Kangirsuk Airport,60.027198791503906,-69.99919891357422,CA,Kangirsuk,YKG
1660,Attawapiskat Airport,52.9275016784668,-82.43190002441406,CA,Attawapiskat,YAT
1664,Lac Du Bonnet Airport,50.294399,-96.010002,CA,Lac Du Bonnet,
1665,St. Anthony Airport,51.391909,-56.08321,CA,St. Anthony,YAY
1666,Tofino / Long Beach Airport,49.079833,-125.775583,CA,Tofino,YAZ
1668,Kugaaruk Airport,68.534401,-89.808098,CA,Kugaaruk,YBB
1669,Baie-Comeau Airport,49.1325,-68.204399,CA,Baie-Comeau,YBC
1670,Bella Coola Airport,52.387501,-126.596001,CA,Bella Coola,QBC
1671,Uranium City Airport,59.5614013671875,-108.48100280761719,CA,Uranium City,YBE
1672,Bonnyville Airport,54.304199,-110.744003,CA,Bonnyville,YBY
1673,CFB Bagotville,48.33060073852539,-70.99639892578125,CA,Bagotville,YBG
1674,Baker Lake Airport,64.29889678960001,-96.077796936,CA,Baker Lake,YBK
1675,Campbell River Airport,49.950802,-125.271004,CA,Campbell River,YBL
1677,Tadoule Lake Airport,58.7061,-98.512199,CA,Tadoule Lake,XTL
1678,Brandon Municipal Airport,49.91,-99.951897,CA,Brandon,YBR
1679,Brochet Airport,57.8894,-101.679001,CA,Brochet,YBT
1681,Berens River Airport,52.358898,-97.018303,CA,Berens River,YBV
1683,Lourdes-de-Blanc-Sablon Airport,51.4436,-57.185299,CA,Blanc-Sablon,YBX
1684,Cartwright Airport,53.682501,-57.042303,CA,Cartwright,YRF
1685,Cambridge Bay Airport,69.1081008911,-105.138000488,CA,Cambridge Bay,YCB
1687,Nanaimo Airport,49.05497,-123.869863,CA,Nanaimo,YCD
1689,Castlegar/West Kootenay Regional Airport,49.2963981628,-117.632003784,CA,Castlegar,YCG
1690,Miramichi Airport,47.007801,-65.449203,CA,Miramichi,YCH
1691,Charlo Airport,47.990799,-66.330299,CA,Charlo,YCL
1693,Kugluktuk Airport,67.816704,-115.143997,CA,Kugluktuk,YCO
1697,Chesterfield Inlet Airport,63.346900939899996,-90.73110198970001,CA,Chesterfield Inlet,YCS
1701,Clyde River Airport,70.4860992432,-68.5167007446,CA,Clyde River,YCY
1703,Dawson City Airport,64.04309844970703,-139.1280059814453,CA,Dawson City,YDA
1706,Deer Lake Airport,49.21080017089844,-57.39139938354492,CA,Deer Lake,YDF
1710,Dauphin Barker Airport,51.100799560546875,-100.052001953125,CA,Dauphin,YDN
1712,Nain Airport,56.550778,-61.682224,CA,Nain,YDP
1713,Dawson Creek Airport,55.7422981262207,-120.18299865722656,CA,Dawson Creek,YDQ
1718,Arviat Airport,61.0942001343,-94.07080078119999,CA,Arviat,YEK
1722,Fort Severn Airport,56.01890182495117,-87.67610168457031,CA,Fort Severn,YER
1726,Inuvik Mike Zubko Airport,68.30419921880001,-133.483001709,CA,Inuvik,YEV
1728,Fort Albany Airport,52.20140075683594,-81.6968994140625,CA,Fort Albany,YFA
1729,Iqaluit Airport,63.756402,-68.555801,CA,Iqaluit,YFB
1730,Fredericton Airport,45.868900299072266,-66.53720092773438,CA,Fredericton,YFC
1733,Fort Hope Airport,51.5619010925293,-87.90779876708984,CA,Fort Hope,YFH
1734,Mont-Tremblant International Airport,46.409401,-74.779999,CA,La Macaza,YTM
1735,Flin Flon Airport,54.6781005859375,-101.68199920654297,CA,Flin Flon,YFO
1737,Fort Simpson Airport,61.76020050048828,-121.23699951171875,CA,Fort Simpson,YFS
1738,Makkovik Airport,55.077335,-59.187942,CA,Makkovik,YMN
1739,Texada Gillies Bay Airport,49.69419860839844,-124.51799774169922,CA,Texada,YGB
1742,Fort Good Hope Airport,66.24079895019531,-128.6510009765625,CA,Fort Good Hope,YGH
1743,Kingston Norman Rogers Airport,44.22529983520508,-76.5969009399414,CA,Kingston,YGK
1744,La Grande Rivière Airport,53.625301361083984,-77.7042007446289,CA,La Grande Rivière,YGL
1746,Gods Lake Narrows Airport,54.55889892578125,-94.49140167236328,CA,Gods Lake Narrows,YGO
1747,Gaspé (Michel-Pouliot) Airport,48.7752990723,-64.4785995483,CA,Gaspé,YGP
1749,Îles-de-la-Madeleine Airport,47.425242,-61.778612,CA,Les Îles-de-la-Madeleine,YGR
1750,Igloolik Airport,69.3647003174,-81.8161010742,CA,Igloolik,YGT
1752,Kuujjuarapik Airport,55.281898498535156,-77.76529693603516,CA,Kuujjuarapik,YGW
1753,Gillam Airport,56.35749816894531,-94.71060180664062,CA,Gillam,YGX
1754,Grise Fiord Airport,76.4261016846,-82.90920257570001,CA,Grise Fiord,YGZ
1755,Quaqtaq Airport,61.0463981628418,-69.6177978515625,CA,Quaqtaq,YQC
1757,Dryden Regional Airport,49.831699,-92.744202,CA,Dryden,YHD
1760,Nemiscau Airport,51.69110107421875,-76.1355972290039,CA,Nemiscau,YNS
1761,Ulukhaktok Holman Airport,70.76280212402344,-117.80599975585938,CA,Ulukhaktok,YHI
1762,Gjoa Haven Airport,68.635597229,-95.84970092770001,CA,Gjoa Haven,YHK
1763,John C. Munro Hamilton International Airport,43.173599243199995,-79.93499755859999,CA,Hamilton,YHM
1765,Hopedale Airport,55.448757,-60.228124,CA,Hopedale,YHO
1766,Chevery Airport,50.46889877319336,-59.63669967651367,CA,Chevery,YHR
1768,Montréal / Saint-Hubert Airport,45.5175018311,-73.4169006348,CA,Montréal,YHU
1769,Hay River / Merlyn Carter Airport,60.8396987915,-115.782997131,CA,Hay River,YHY
1774,Ivujivik Airport,62.417301177978516,-77.92530059814453,CA,Ivujivik,YIK
1775,Pond Inlet Airport,72.6832962036,-77.9666976929,CA,Pond Inlet,YIO
1776,Island Lake Airport,53.857200622558594,-94.65360260009766,CA,Island Lake,YIV
1783,Stephenville Airport,48.5442008972168,-58.54999923706055,CA,Stephenville,YJT
1784,Kamloops Airport,50.7022018433,-120.444000244,CA,Kamloops,YKA
1786,Aklavik/Freddie Carmichael Airport,68.223297,-135.00599,CA,Aklavik,LAK
1787,Waterloo Airport,43.460800170899994,-80.3786010742,CA,Kitchener,YKF
1788,Kangiqsujuaq (Wakeham Bay) Airport,61.5886001587,-71.929397583,CA,Kangiqsujuaq,YWB
1790,Schefferville Airport,54.805301666259766,-66.8052978515625,CA,Schefferville,YKL
1791,Akulivik Airport,60.818599700927734,-78.14859771728516,CA,Akulivik,AKV
1792,Waskaganish Airport,51.47330093383789,-78.75830078125,CA,Waskaganish,YKQ
1796,Aupaluk Airport,59.29669952392578,-69.59970092773438,CA,Aupaluk,YPJ
1798,Kimmirut Airport,62.848253,-69.877853,CA,Kimmirut,YLC
1800,Lansdowne House Airport,52.19559860229492,-87.93419647216797,CA,Lansdowne House,YLH
1802,Lutselk'e Airport,62.418303,-110.681998,CA,Lutselk'e,YSG
1803,Lloydminster Airport,53.309200286865234,-110.072998046875,CA,Lloydminster,YLL
1807,Kangiqsualujjuaq (Georges River) Airport,58.711399,-65.992798,CA,Kangiqsualujjuaq,XGR
1808,Kelowna International Airport,49.9561,-119.377998,CA,Kelowna,YLW
1812,Mary's Harbour Airport,52.302837,-55.847626,CA,Mary's Harbour,YMH
1815,Fort McMurray Airport,56.653301239,-111.222000122,CA,Fort McMurray,YMM
1816,Moosonee Airport,51.291099548339844,-80.60780334472656,CA,Moosonee,YMO
1817,Chapais Airport,49.77190017700195,-74.5280990600586,CA,Chibougamau,YMT
1818,Umiujaq Airport,56.53609848022461,-76.51830291748047,CA,Umiujaq,YUD
1822,Natashquan Airport,50.189998626708984,-61.78919982910156,CA,Natashquan,YNA
1823,Wemindji Airport,53.01060104370117,-78.83110046386719,CA,Wemindji,YNC
1824,Ottawa / Gatineau Airport,45.521702,-75.563599,CA,Gatineau,YND
1825,Norway House Airport,53.95830154418945,-97.84420013427734,CA,Norway House,YNE
1828,Points North Landing Airport,58.27669906616211,-104.08200073242188,CA,Points North Landing,YNL
1833,Old Crow Airport,67.57060241699219,-139.83900451660156,CA,Old Crow,YOC
1835,Oxford House Airport,54.93330001831055,-95.27890014648438,CA,Oxford House,YOH
1836,High Level Airport,58.62139892578125,-117.16500091552734,CA,High Level,YOJ
1838,Rainbow Lake Airport,58.49140167236328,-119.40799713134766,CA,Rainbow Lake,YOP
1842,Prince Albert Glass Field,53.214199066199996,-105.672996521,CA,Prince Albert,YPA
1843,Paulatuk (Nora Aliqatchialuk Ruben) Airport,69.3608381154,-124.075469971,CA,Paulatuk,YPC
1845,Peace River Airport,56.226898,-117.446999,CA,Peace River,YPE
1847,Inukjuak Airport,58.471900939941406,-78.07689666748047,CA,Inukjuak,YPH
1849,Pickle Lake Airport,51.4463996887207,-90.21420288085938,CA,Pickle Lake,YPL
1850,Pikangikum Airport,51.819698333740234,-93.97329711914062,CA,Pikangikum,YPM
1852,Peawanuck Airport,54.98809814453125,-85.44329833984375,CA,Peawanuck,YPO
1855,Prince Rupert Airport,54.286098480199996,-130.445007324,CA,Prince Rupert,YPR
1859,Powell River Airport,49.83420181274414,-124.5,CA,Powell River,YPW
1861,Fort Chipewyan Airport,58.7672004699707,-111.11699676513672,CA,Fort Chipewyan,YPY
1862,Burns Lake Airport,54.3764,-125.950996,CA,Burns Lake,YPZ
1865,The Pas Airport,53.97140121459961,-101.09100341796875,CA,The Pas,YQD
1867,Windsor Airport,42.27560043334961,-82.95559692382812,CA,Windsor,YQG
1870,Kenora Airport,49.788299560546875,-94.36309814453125,CA,Kenora,YQK
1871,Lethbridge County Airport,49.6302986145,-112.800003052,CA,Lethbridge,YQL
1872,Greater Moncton Roméo LeBlanc International Airport,46.112202,-64.678596,CA,Moncton,YQM
1873,Nakina Airport,50.18280029296875,-86.69640350341797,CA,Nakina,YQN
1874,Comox Valley Airport / CFB Comox,49.7108,-124.887001,CA,Comox,YQQ
1875,Regina International Airport,50.43190002441406,-104.66600036621094,CA,Regina,YQR
1877,Thunder Bay Airport,48.37189865112305,-89.32389831542969,CA,Thunder Bay,YQT
1878,Grande Prairie Airport,55.1796989441,-118.885002136,CA,Grande Prairie,YQU
1881,Gander International Airport / CFB Gander,48.936258,-54.567719,CA,Gander,YQX
1882,Sydney / J.A. Douglas McCurdy Airport,46.1614,-60.047798,CA,Sydney,YQY
1883,Quesnel Airport,53.026100158691406,-122.51000213623047,CA,Quesnel,YQZ
1884,Rae Lakes Airport,64.11609649658203,-117.30999755859375,CA,Gamètì,YRA
1885,Resolute Bay Airport,74.7169036865,-94.9693984985,CA,Resolute Bay,YRB
1888,Roberval Airport,48.52000045776367,-72.2656021118164,CA,Roberval,YRJ
1889,Red Lake Airport,51.066898345947266,-93.79309844970703,CA,Red Lake,YRL
1895,Rankin Inlet Airport,62.8114013672,-92.1157989502,CA,Rankin Inlet,YRT
1897,Sudbury Airport,46.625,-80.79889678955078,CA,Sudbury,YSB
1901,Stony Rapids Airport,59.250301361083984,-105.84100341796875,CA,Stony Rapids,YSF
1904,Saint John Airport,45.31610107421875,-65.89029693603516,CA,Saint John,YSJ
1905,Sanikiluaq Airport,56.5377998352,-79.2466964722,CA,Sanikiluaq,YSK
1907,Fort Smith Airport,60.020302,-111.961998,CA,Fort Smith,YSM
1910,Atlin Airport,59.576698,-133.669006,CA,Atlin,
1912,St. Theresa Point Airport,53.84560012817383,-94.85189819335938,CA,St. Theresa Point,YST
1915,Sachs Harbour (David Nasogaluak Jr. Saaryuaq) Airport,71.9938964844,-125.242996216,CA,Sachs Harbour,YSY
1918,Cape Dorset Airport,64.230003,-76.526703,CA,Kinngait,YTE
1919,Alma Airport,48.50889968869999,-71.64189910889999,CA,Alma,YTF
1920,Thompson Airport,55.80110168457031,-97.86419677734375,CA,Thompson,YTH
1921,Big Trout Lake Airport,53.81779861450195,-89.89689636230469,CA,Big Trout Lake,YTL
1925,Timmins/Victor M. Power,48.569698333699996,-81.376701355,CA,Timmins,YTS
1926,Billy Bishop Toronto City Centre Airport,43.627499,-79.396202,CA,Toronto,YTZ
1927,Tuktoyaktuk / James Gruben Airport,69.433296,-133.026001,CA,Tuktoyaktuk,YUB
1929,Naujaat Airport,66.5214,-86.224701,CA,Repulse Bay,YUT
1930,Hall Beach Airport,68.7761,-81.2425,CA,Sanirajak,YUX
1931,Rouyn Noranda Airport,48.20610046386719,-78.83560180664062,CA,Rouyn-Noranda,YUY
1933,La Ronge Airport,55.151401519800004,-105.262001038,CA,La Ronge,YVC
1937,Qikiqtarjuaq Airport,67.546232,-64.031754,CA,Qikiqtarjuaq,YVM
1938,Val-d'Or Airport,48.0532989502,-77.7827987671,CA,Val-d'Or,YVO
1939,Kuujjuaq Airport,58.096099853515625,-68.4269027709961,CA,Kuujjuaq,YVP
1940,Norman Wells Airport,65.28160095214844,-126.7979965209961,CA,Norman Wells,YVQ
1944,Deer Lake Airport,52.655799865722656,-94.0614013671875,CA,Deer Lake,YVZ
1948,Déline Airport,65.21109771728516,-123.43599700927734,CA,Déline,YWJ
1949,Wabush Airport,52.92190170288086,-66.8644027709961,CA,Wabush,YWK
1950,Williams Lake Airport,52.1831016541,-122.054000854,CA,Williams Lake,YWL
1952,Webequie Airport,52.9593933975,-87.3748683929,CA,Webequie,YWP
1955,Cranbrook/Canadian Rockies International Airport,49.610801696777,-115.78199768066,CA,Cranbrook,YXC
1957,Saskatoon John G. Diefenbaker International Airport,52.170799255371094,-106.69999694824219,CA,Saskatoon,YXE
1958,Medicine Hat Regional Airport,50.018902,-110.721001,CA,Medicine Hat,YXH
1959,Fort St John Airport,56.238098,-120.739998,CA,Fort St.John,YXJ
1961,Sioux Lookout Airport,50.11389923095703,-91.9052963256836,CA,Sioux Lookout,YXL
1962,Whale Cove Airport,62.24000167849999,-92.59809875490001,CA,Whale Cove,YXN
1963,Pangnirtung Airport,66.1449966431,-65.71360015869999,CA,Pangnirtung,YXP
1966,Prince George Airport,53.8894004822,-122.679000854,CA,Prince George,YXS
1967,Northwest Regional Airport Terrace-Kitimat,54.468498,-128.576009,CA,Terrace,YXT
1968,London Airport,43.035599,-81.1539,CA,London,YXU
1970,Whitehorse / Erik Nielsen International Airport,60.709599,-135.067001,CA,Whitehorse,YXY
1972,North Bay Jack Garland Airport,46.363602,-79.422798,CA,North Bay,YYB
1974,Smithers Airport,54.82469940185547,-127.18299865722656,CA,Smithers,YYD
1975,Fort Nelson Airport,58.8363990784,-122.597000122,CA,Fort Nelson,YYE
1976,Penticton Airport,49.46310043334961,-119.60199737548828,CA,Penticton,YYF
1977,Charlottetown Airport,46.290000915527344,-63.12110137939453,CA,Charlottetown,YYG
1978,Taloyoak Airport,69.5467,-93.576698,CA,Taloyoak,YYH
1980,Lynn Lake Airport,56.86389923095703,-101.07599639892578,CA,Lynn Lake,YYL
1984,Churchill Airport,58.739200592041016,-94.06500244140625,CA,Churchill,YYQ
1985,Goose Bay Airport,53.3191986084,-60.4258003235,CA,Goose Bay,YYR
1987,Kapuskasing Airport,49.41389846801758,-82.46749877929688,CA,Kapuskasing,YYU
1989,Mont Joli Airport,48.60860061645508,-68.20809936523438,CA,Mont-Joli,YYY
1993,Yellowknife International Airport,62.462799,-114.440002,CA,Yellowknife,YZF
1994,Salluit Airport,62.17940139770508,-75.66719818115234,CA,Salluit,YZG
1996,Sandspit Airport,53.25429916379999,-131.813995361,CA,Sandspit,YZP
1997,Chris Hadfield Airport,42.9994010925293,-82.30889892578125,CA,Sarnia,YZR
1998,Coral Harbour Airport,64.1932983398,-83.3593978882,CA,Coral Harbour,YZS
1999,Port Hardy Airport,50.680599212646484,-127.36699676513672,CA,Port Hardy,YZT
2001,Sept-Îles Airport,50.22330093383789,-66.2656021118164,CA,Sept-Îles,YZV
2005,York Landing Airport,56.08940124511719,-96.08920288085938,CA,York Landing,ZAC
2009,Ilford Airport,56.05163,-95.620523,CA,Ilford,ILF
2010,Bathurst Airport,47.6297,-65.738899,CA,South Tetagouche,ZBF
2013,Eastmain River Airport,52.22639846801758,-78.52249908447266,CA,Eastmain River,ZEM
2015,Fond-Du-Lac Airport,59.33440017700195,-107.18199920654297,CA,Fond-Du-Lac,ZFD
2017,Fort Mcpherson Airport,67.40750122070312,-134.86099243164062,CA,Fort Mcpherson,ZFM
2018,Tulita Airport,64.909697,-125.572998,CA,Tulita,ZFN
2020,Gods River Airport,54.839698791503906,-94.07859802246094,CA,Gods River,ZGI
2025,Kashechewan Airport,52.282501220703125,-81.67780303955078,CA,Kashechewan,ZKE
2027,Muskrat Dam Airport,53.44139862060547,-91.76280212402344,CA,Muskrat Dam,MSA
2030,Masset Airport,54.02750015258789,-132.125,CA,Masset,ZMT
2033,Sachigo Lake Airport,53.8911018371582,-92.19640350341797,CA,Sachigo Lake,ZPB
2036,Round Lake (Weagamow Lake) Airport,52.943599700927734,-91.31279754638672,CA,Round Lake,ZRJ
2037,Sandy Lake Airport,53.06420135498047,-93.34439849853516,CA,Sandy Lake,ZSJ
2041,Shamattawa Airport,55.8656005859375,-92.0813980102539,CA,Shamattawa,ZTM
2046,Wollaston Lake Airport,58.10689926147461,-103.1719970703125,CA,Wollaston Lake,ZWL
2049,Soummam–Abane Ramdane Airport,36.711952,5.069804,DZ,Béjaïa,BJA
2051,Djanet Inedbirene Airport,24.292801,9.45244,DZ,Djanet,DJG
2054,Illizi Takhamalt Airport,26.723499,8.62265,DZ,Illizi,VVZ
32193,Ain Arnat Airport,36.178100585900005,5.3244900703399995,DZ,Sétif,QSF
2056,Aguenar – Hadj Bey Akhamok Airport,22.8115005493,5.45107984543,DZ,Tamanrasset,TMR
2057,Jijel Ferhat Abbas Airport,36.795101,5.87361,DZ,Tahir,GJL
2060,Annaba Rabah Bitat Airport,36.826781,7.81334,DZ,Annaba,AAE
2061,Mohamed Boudiaf International Airport,36.2760009765625,6.620389938354492,DZ,Constantine,CZL
2062,Cheikh Larbi Tébessi Airport,35.4315986633,8.12071990967,DZ,Tébessi,TEE
2063,Batna Mostefa Ben Boulaid Airport,35.752102,6.30859,DZ,Batna,BLJ
2064,Hassi R'Mel Airport,32.930401,3.31154,DZ,Hassi R'Mel,HRM
2067,Tindouf Airport,27.7003993988,-8.167099952700001,DZ,Tindouf,TIN
2070,Zenata – Messali El Hadj Airport,35.013426,-1.457191,DZ,Zenata,TLM
2071,Oran Es-Sénia (Ahmed Ben Bella) International Airport,35.623901,-0.621183,DZ,Es-Sénia,ORN
2072,Béchar Boudghene Ben Ali Lotfi Airport,31.645700454711914,-2.269860029220581,DZ,Béchar,CBH
2075,Touat Cheikh Sidi Mohamed Belkebir Airport,27.837601,-0.186414,DZ,Adrar,AZR
2076,Biskra - Mohamed Khider Airport,34.793301,5.73823,DZ,Biskra,BSK
2077,El Golea Airport,30.580732,2.861595,DZ,El Menia,ELG
2078,Noumérat - Moufdi Zakaria Airport,32.384102,3.79411,DZ,El Atteuf,GHA
2079,Hassi Messaoud-Oued Irara Krim Belkacem Airport,31.673,6.14044,DZ,Hassi Messaoud,HME
2080,In Salah Airport,27.250999,2.51202,DZ,In Salah,INZ
2081,Touggourt Sidi Madhi Airport,33.067799,6.08867,DZ,Touggourt,TGR
2083,Guemar Airport,33.5113983154,6.77679014206,DZ,Guemar,ELU
2084,Timimoun Airport,29.237101,0.276033,DZ,Timimoun,TMX
2085,Ain Beida Airport,31.9172,5.41278,DZ,Ouargla,OGX
2086,Zarzaitine - In Aménas Airport,28.0515,9.64291,DZ,In Aménas,IAM
2087,Cadjehoun Airport,6.357230186462402,2.384350061416626,BJ,Cotonou,COO
316519,Baicheng Chang'an Airport,45.505278,123.019722,CN,Baicheng,DBC
2088,Ouagadougou Airport,12.3532,-1.51242,BF,Ouagadougou,OUA
2089,Bobo Dioulasso Airport,11.160099983215332,-4.33096981048584,BF,Bobo Dioulasso,BOY
354173,Ho Airport,6.579691,0.532547,GH,Ho,
2091,Tamale Airport,9.55718994140625,-0.8632140159606934,GH,Tamale,TML
2093,Kumasi Airport,6.714560031890869,-1.5908199548721313,GH,Kumasi,KMS
2094,Sunyani Airport,7.36183,-2.32876,GH,Sunyani,NYI
2095,Takoradi Airport,4.896059989929199,-1.7747600078582764,GH,Sekondi-Takoradi,TKD
2096,Félix-Houphouët-Boigny International Airport,5.26139,-3.92629,CI,Abidjan,ABJ
2097,Bouaké Airport,7.7388,-5.07367,CI,Bouaké,BYK
309668,Akwa Ibom International Airport,4.8725,8.093,NG,Uyo,QUO
2105,Akure Airport,7.246739864349365,5.3010101318359375,NG,Akure,AKR
323056,Sir Abubakar Tafawa Balewa International Airport,10.482833,9.744,NG,Bauchi,BCU
2106,Benin Airport,6.316979885101318,5.5995001792907715,NG,Benin,BNI
340295,Bayelsa International Airport,4.95759,6.203327,NG,Yenagoa,
2107,Margaret Ekpo International Airport,4.976019859313965,8.347200393676758,NG,Calabar,CBQ
2108,Akanu Ibiam International Airport,6.474269866943359,7.561960220336914,NG,Enegu,ENU
2110,Ibadan Airport,7.362460136413574,3.97832989692688,NG,Ibadan,IBA
2111,Ilorin International Airport,8.440210342407227,4.493919849395752,NG,Ilorin,ILR
2112,Sam Mbakwe International Airport,5.427060127258301,7.206029891967773,NG,Owerri,QOW
2113,Yakubu Gowon Airport,9.639829635620117,8.869050025939941,NG,Jos,JOS
2114,Kaduna Airport,10.696000099182129,7.320109844207764,NG,Kaduna,KAD
2115,Mallam Aminu International Airport,12.0476,8.52462,NG,Kano,KAN
2116,Maiduguri International Airport,11.855299949645996,13.080900192260742,NG,Maiduguri,MIU
2117,Makurdi Airport,7.70388,8.61394,NG,Makurdi,MDI
2120,Port Harcourt International Airport,5.0154900550842285,6.94959020614624,NG,Port Harcourt,PHC
2121,Sadiq Abubakar III International Airport,12.916299819946289,5.207190036773682,NG,Sokoto,SKO
2122,Yola Airport,9.257550239562988,12.430399894714355,NG,Yola,YOL
2127,Mano Dayak International Airport,16.965999603271484,8.000109672546387,NE,Agadez,AJY
2130,Zinder Airport,13.779000282287598,8.983759880065918,NE,Zinder,ZND
2131,Tabarka-Aïn Draham International Airport,36.98,8.87694,TN,Tabarka,TBJ
2132,Monastir Habib Bourguiba International Airport,35.75809860229492,10.75469970703125,TN,Monastir,MIR
44483,Enfidha - Hammamet International Airport,36.075833,10.438611,TN,Enfidha,NBE
2136,Gafsa Ksar International Airport,34.422000885009766,8.822500228881836,TN,Gafsa,GAF
2137,Gabès Matmata International Airport,33.733691,9.91941,TN,Gabès,GAE
2139,Djerba Zarzis International Airport,33.875,10.7755,TN,Mellita,DJE
2141,Sfax Thyna International Airport,34.71799850463867,10.690999984741211,TN,Sfax,SFA
2142,Tozeur Nefta International Airport,33.939701080322266,8.110560417175293,TN,Tozeur,TOE
2144,Lomé–Tokoin International Airport,6.16561,1.25451,TG,Lomé,LFW
2152,Antwerp International Airport (Deurne),51.1894,4.46028,BE,Antwerp,ANR
2157,Brussels South Charleroi Airport,50.459202,4.45382,BE,Brussels,CRL
2162,Liège Airport,50.637402,5.44322,BE,Liège,LGG
2163,Ostend-Bruges International Airport,51.1998,2.874673,BE,Ostend,OST
2187,Heringsdorf Airport,53.8787002563,14.152299881,DE,Heringsdorf,HDF
2210,Dresden Airport,51.134123,13.767831,DE,Dresden,DRS
2211,Erfurt Airport,50.979801177978516,10.958100318908691,DE,Erfurt,ERF
2213,Münster Osnabrück Airport,52.134602,7.68483,DE,Münster,FMO
2221,Saarbrücken Airport,49.214599609400004,7.10950994492,DE,Saarbrücken,SCN
2225,Bremen Airport,53.047501,8.78667,DE,Bremen,BRE
2227,Frankfurt-Hahn Airport,49.9487,7.26389,DE,Frankfurt am Main,HHN
2228,Mannheim-City Airport,49.473057,8.514167,DE,Mannheim,MHG
2236,Lübeck Blankensee Airport,53.8054008484,10.7192001343,DE,Lübeck,LBC
2237,Memmingen Allgau Airport,47.988800048799995,10.2395000458,DE,Memmingen,FMM
2244,Paderborn Lippstadt Airport,51.614101409899995,8.616319656369999,DE,Paderborn,PAD
2246,Weeze Airport,51.6024017334,6.14216995239,DE,Weeze,NRN
2247,Dortmund Airport,51.518299,7.61224,DE,Dortmund,DTM
2256,Friedrichshafen Airport,47.671299,9.51149,DE,Friedrichshafen,FDH
2270,Karlsruhe Baden-Baden Airport,48.7794,8.0805,DE,Baden-Baden,FKB
2285,Kassel-Calden Airport,51.417273,9.384967,DE,Kassel,KSF
2296,Westerland Sylt Airport,54.9132003784,8.34047031403,DE,Westerland,GWT
2298,Kärdla Airport,58.99079895019531,22.830699920654297,EE,Kärdla,KDL
2299,Kuressaare Airport,58.22990036010742,22.50950050354004,EE,Kuressaare,URE
2300,Pärnu Airport,58.41899871826172,24.47279930114746,EE,Pärnu,EPU
2302,Tartu Airport,58.307499,26.690399,EE,Tartu,TAY
2303,Enontekio Airport,68.362602233887,23.424299240112,FI,Enontekio,ENF
2314,Ivalo Airport,68.607299804688,27.405300140381,FI,Ivalo,IVL
2315,Joensuu Airport,62.662899,29.6075,FI,Joensuu / Liperi,JOE
2316,Jyväskylä Airport,62.399502,25.678301,FI,Jyväskylän Maalaiskunta,JYV
2318,Kemi-Tornio Airport,65.778701782227,24.582099914551,FI,Kemi / Tornio,KEM
2319,Kajaani Airport,64.2855,27.6924,FI,Kajaani,KAJ
2321,Kokkola-Pietarsaari Airport,63.721199,23.143101,FI,Kokkola / Kruunupyy,KOK
2324,Kuusamo Airport,65.987602,29.239401,FI,Kuusamo,KAO
2325,Kittilä Airport,67.700996398926,24.846799850464,FI,Kittilä,KTT
2326,Kuopio Airport,63.007099,27.7978,FI,Kuopio / Siilinjärvi,KUO
2329,Lappeenranta Airport,61.044601,28.144743,FI,Lappeenranta,LPP
2330,Mariehamn Airport,60.1222,19.898199,FI,Mariehamn,MHQ
2334,Oulu Airport,64.930099,25.354601,FI,Oulu / Oulunsalo,OUL
2336,Pori Airport,61.4617,21.799999,FI,Pori,POR
2341,Rovaniemi Airport,66.564796447754,25.830400466919,FI,Rovaniemi,RVN
2343,Savonlinna Airport,61.9431,28.945101,FI,Savonlinna,SVL
2345,Seinäjoki Airport,62.692101,22.8323,FI,Seinäjoki / Ilmajoki,SJY
2347,Tampere-Pirkkala Airport,61.414101,23.604401,FI,Tampere / Pirkkala,TMP
2349,Turku Airport,60.514099,22.2628,FI,Turku,TKU
2351,Vaasa Airport,63.050701,21.762199,FI,Vaasa,VAA
2352,Varkaus Airport,62.171101,27.868601,FI,Varkaus / Joroinen,VRK
2387,George Best Belfast City Airport,54.618099,-5.8725,GB,Belfast,BHD
2388,City of Derry Airport,55.04280090332031,-7.161109924316406,GB,Derry,LDY
2401,Robin Hood Doncaster Sheffield Airport,53.480538,-1.010656,GB,Doncaster,DSA
2411,Campbeltown Airport,55.437198638916016,-5.686389923095703,GB,Campbeltown,CAL
29126,Eday Airport,59.19060134887695,-2.7722198963165283,GB,Eday,EOI
2415,Cardiff International Airport,51.396702,-3.34333,GB,Cardiff,CWL
2417,Bristol Airport,51.382702,-2.71909,GB,Bristol,BRS
2418,Liverpool John Lennon Airport,53.333599,-2.84972,GB,Liverpool,LPL
2421,Bournemouth Airport,50.779999,-1.8425,GB,Bournemouth,BOH
2422,Southampton Airport,50.950298,-1.3568,GB,Southampton,SOU
2404,Newquay Cornwall Airport,50.44060134887695,-4.995409965515137,GB,Newquay,NQY
2424,Alderney Airport,49.706104,-2.21472,GG,Saint Anne,ACI
2425,Guernsey Airport,49.435001,-2.60197,GG,Saint Peter Port,GCI
2426,Jersey Airport,49.20790100097656,-2.195509910583496,JE,Saint Helier,JER
2430,London City Airport,51.505299,0.055278,GB,London,LCY
2435,Southend Airport,51.5714,0.695556,GB,London,SEN
2441,Blackpool International Airport,53.77170181274414,-3.0286099910736084,GB,Blackpool,BLK
2442,Humberside Airport,53.57440185546875,-0.350832998752594,GB,Grimsby,HUY
2444,Leeds Bradford Airport,53.865898,-1.66057,GB,Leeds,LBA
2447,Isle of Man Airport,54.083302,-4.62389,IM,Castletown,IOM
2448,Newcastle Airport,55.037498,-1.69167,GB,Newcastle,NCL
2449,Teesside International Airport,54.509201,-1.42941,GB,"Darlington, Durham",MME
2450,East Midlands Airport,52.8311,-1.32806,GB,Nottingham,EMA
2454,Anglesey Airport,53.2481002808,-4.53533983231,GB,Angelsey,VLY
2456,Kirkwall Airport,58.957801818847656,-2.9049999713897705,GB,Orkney Islands,KOI
2457,Sumburgh Airport,59.87889862060547,-1.2955600023269653,GB,Lerwick,LSI
2458,Wick Airport,58.458900451660156,-3.09306001663208,GB,Wick,WIC
2459,Aberdeen Dyce Airport,57.2019,-2.19778,GB,Aberdeen,ABZ
2460,Inverness Airport,57.54249954223633,-4.047500133514404,GB,Inverness,INV
2463,Islay Airport,55.68190002441406,-6.256669998168945,GB,Port Ellen,ILY
2464,Glasgow Prestwick Airport,55.502003,-4.587019,GB,"Prestwick, South Ayrshire",PIK
2465,Benbecula Airport,57.48109817504883,-7.3627800941467285,GB,Balivanich,BEB
2467,Dundee Airport,56.45249938964844,-3.025830030441284,GB,Dundee,DND
2468,Stornoway Airport,58.215599,-6.33111,GB,"Stornoway, Western Isles",SYY
29173,Barra Airport,57.0228,-7.44306,GB,Eoligarry,BRR
2469,Tiree Airport,56.49919891357422,-6.869170188903809,GB,Balemartine,TRE
2475,Norwich International Airport,52.6758,1.28278,GB,Norwich,NWI
2481,Exeter International Airport,50.734402,-3.41389,GB,Exeter,EXT
2512,Mount Pleasant Airport,-51.82279968261719,-58.447200775146484,FK,Mount Pleasant,MPN
2515,Maastricht Aachen Airport,50.911701,5.77014,NL,Maastricht,MST
2519,Eelde Airport,53.1197013855,6.57944011688,NL,Groningen,GRQ
2522,Lelystad Airport,52.4603,5.52722,NL,Lelystad,LEY
2524,Rotterdam The Hague Airport,51.956902,4.43722,NL,Rotterdam,RTM
2530,Cork Airport,51.841301,-8.49111,IE,Cork,ORK
2531,Galway Airport,53.300201416015625,-8.941590309143066,IE,Galway,GWY
2532,Donegal Airport,55.0442008972168,-8.340999603271484,IE,Donegal,CFN
2534,Ireland West Knock Airport,53.910301,-8.81849,IE,Charlestown,NOC
2535,Kerry Airport,52.180901,-9.52378,IE,Killarney,KIR
2539,Waterford Airport,52.187198638916016,-7.0869598388671875,IE,Waterford,WAT
2540,Aarhus Airport,56.303331,10.618286,DK,Aarhus,AAR
2543,Esbjerg Airport,55.525902,8.5534,DK,Esbjerg,EBJ
2546,Karup Airport,56.29750061035156,9.124629974365234,DK,Karup,KRP
2549,Odense Airport,55.47669982910156,10.330900192260742,DK,Odense,ODE
2552,Bornholm Airport,55.06330108642578,14.759599685668945,DK,Rønne,RNN
2553,Sønderborg Airport,54.96440124511719,9.791729927062988,DK,Sønderborg,SGD
2554,Sindal Airport,57.503502,10.2294,DK,Sindal,CNL
2559,Vágar Airport,62.063256,-7.275782,FO,Vágar,FAE
2562,Aalborg Airport,57.092759,9.849243,DK,Aalborg,AAL
2564,"Ålesund Airport, Vigra",62.5625,6.1197,NO,Ålesund,AES
2565,"Andøya Airport, Andenes",69.292503,16.144199,NO,Andenes,ANX
2566,Alta Airport,69.976097106934,23.371700286865,NO,Alta,ALF
2568,"Brønnøysund Airport, Brønnøy",65.461098,12.2175,NO,Brønnøy,BNN
2569,Bodø Airport,67.269203,14.3653,NO,Bodø,BOO
2571,Båtsfjord Airport,70.60050201416,29.691400527954,NO,Båtsfjord,BJF
29255,Berlevåg Airport,70.871399,29.034201,NO,Berlevåg,BVG
2572,"Kristiansand Airport, Kjevik",58.204201,8.08537,NO,Kjevik,KRS
2574,Bardufoss Airport,69.055801391602,18.540399551392,NO,Målselv,BDU
2575,"Harstad/Narvik Airport, Evenes",68.491302490234,16.678100585938,NO,Evenes,EVE
2577,Florø Airport,61.583599090576,5.0247201919556,NO,Florø,FRO
2579,"Haugesund Airport, Karmøy",59.345299,5.20836,NO,Karmøy,HAU
28115,Hammerfest Airport,70.679702758789,23.668600082397,NO,Hammerfest,HFT
29261,"Honningsvåg Airport, Valan",71.009697,25.983601,NO,Honningsvåg,HVG
2581,"Kristiansund Airport, Kvernberget",63.111801,7.82452,NO,Kvernberget,KSU
2583,"Kirkenes Airport, Høybuktmoen",69.7258,29.8913,NO,Kirkenes,KKN
29264,Leknes Airport,68.152496337891,13.609399795532,NO,Leknes,LKN
29265,Mehamn Airport,71.02970123291,27.826700210571,NO,Mehamn,MEH
2585,"Molde Airport, Årø",62.744701,7.2625,NO,Årø,MOL
2586,"Mosjøen Airport, Kjærstad",65.783997,13.2149,NO,Mosjøen,MJF
2587,"Lakselv Airport, Banak",70.068802,24.973499,NO,Lakselv,LKL
2588,Notodden Airport,59.565701,9.21222,NO,Notodden,NTB
2589,Ørland Airport,63.69889831542969,9.604000091552734,NO,Ørland,OLA
28114,"Ørsta-Volda Airport, Hovden",62.180000305176,6.0741000175476,NO,Ørsta,HOV
29277,"Mo i Rana Airport, Røssvoll",66.363899230957,14.301400184631,NO,Mo i Rana,MQN
29278,"Rørvik Airport, Ryum",64.838302612305,11.14610004425,NO,Rørvik,RVK
2591,Røros Airport,62.578399658203,11.342300415039,NO,Røros,RRS
2593,"Svalbard Airport, Longyear",78.246101379395,15.465600013733,NO,Longyearbyen,LYR
29281,"Svolvær Airport, Helle",68.243301,14.6692,NO,Svolvær,SVJ
29282,"Stokmarknes Airport, Skagen",68.578827,15.033417,NO,Hadsel,SKN
2595,"Stord Airport, Sørstokken",59.791901,5.34085,NO,Leirvik,SRP
2596,Sørkjosen Airport,69.786796569824,20.959400177002,NO,Sørkjosen,SOJ
2597,"Vardø Airport, Svartnes",70.355400085449,31.044900894165,NO,Vardø,VAW
2598,"Sandnessjøen Airport, Stokka",65.956802,12.4689,NO,Alstahaug,SSJ
2600,"Sandefjord Airport, Torp",59.1866989136,10.258600235,NO,Torp,TRF
29284,Vadsø Airport,70.065299987793,29.844699859619,NO,Vadsø,VDS
336112,Yan'an Nanniwan Airport,36.479413,109.464083,CN,Yan'an (Baota),ENY
2604,Bydgoszcz Ignacy Jan Paderewski Airport,53.096802,17.977699,PL,Bydgoszcz,BZG
2613,Katowice International Airport,50.4743,19.08,PL,Katowice,KTW
309484,Lublin Airport,51.240278,22.713611,PL,Lublin,LUZ
2616,Łódź Władysław Reymont Airport,51.721900939899996,19.3980998993,PL,Łódź,LCJ
2622,Modlin Airport,52.451099,20.6518,PL,Warsaw,WMI
2625,Poznań-Ławica Airport,52.421001,16.8263,PL,Poznań,POZ
2628,Radom Airport,51.389198,21.213301,PL,Radom,RDO
2629,Rzeszów-Jasionka Airport,50.110001,22.018999,PL,Rzeszów,RZE
2630,"Szczecin-Goleniów ""Solidarność"" Airport",53.584702,14.9022,PL,Goleniow,SZZ
2635,Olsztyn-Mazury Airport,53.481899,20.9377,PL,Olsztyn,SZY
2638,Copernicus Wrocław Airport,51.102699,16.885799,PL,Wrocław,WRO
2639,Zielona Góra-Babimost Airport,52.138500213600004,15.7986001968,PL,Babimost,IEG
2646,Ronneby Airport,56.266701,15.265,SE,Ronneby,RNB
2649,Jönköping Airport,57.757598876953125,14.068699836730957,SE,Jönköping,JKG
2654,Trollhättan-Vänersborg Airport,58.31809997558594,12.345000267028809,SE,Trollhättan,THN
2659,Mora Airport,60.957901,14.5114,SE,Mora,MXX
2660,Stockholm Skavsta Airport,58.788601,16.912201,SE,Nyköping,NYO
316498,Scandinavian Mountains Airport,61.158393,12.842503,SE,Sälen / Trysil,SCR
2664,Kristianstad Airport,55.92169952392578,14.08549976348877,SE,Kristianstad,KID
2668,Kalmar Airport,56.685501,16.2876,SE,Kalmar,KLR
2669,Malmö Sturup Airport,55.536305,13.376198,SE,Malmö,MMX
2670,Halmstad Airport,56.69110107421875,12.820199966430664,SE,Halmstad,HAD
2672,Växjö Kronoberg Airport,56.929100036621094,14.727999687194824,SE,Växjö,VXO
2675,Sveg Airport,62.047798,14.4229,SE,Sveg,EVG
2676,Gällivare Airport,67.13240051269531,20.814599990844727,SE,Gällivare,GEV
2679,Kramfors-Sollefteå Höga Kusten Airport,63.048599,17.7689,SE,Nyland,KRF
2680,Lycksele Airport,64.548302,18.7162,SE,Lycksele,LYC
2682,Sundsvall-Härnösand Airport,62.528099060058594,17.443899154663086,SE,Sundsvall/ Härnösand,SDL
2683,Örnsköldsvik Airport,63.40829849243164,18.989999771118164,SE,Örnsköldsvik,OER
2685,Kiruna Airport,67.821998596191,20.336799621582,SE,Kiruna,KRN
2687,Skellefteå Airport,64.62480163574219,21.076900482177734,SE,Skellefteå,SFT
2689,Umeå Airport,63.791801452637,20.282800674438,SE,Umeå,UME
2690,Vilhelmina South Lapland Airport,64.579102,16.833599,SE,Vilhelmina,VHM
2691,Arvidsjaur Airport,65.59030151367188,19.28190040588379,SE,Arvidsjaur,AJR
29358,Åre Östersund Airport,63.194400787354,14.50030040741,SE,Östersund,OSD
2693,Örebro Airport,59.22370147705078,15.038000106811523,SE,Örebro,ORB
2694,Hagfors Airport,60.0201,13.5789,SE,Råda,HFS
2695,Karlstad Airport,59.444698333699996,13.337400436400001,SE,Karlstad,KSD
2696,Stockholm Västerås Airport,59.58940124511719,16.63360023498535,SE,Stockholm / Västerås,VST
2697,Luleå Airport,65.5438,22.122,SE,Luleå,LLA
2702,Stockholm-Bromma Airport,59.354400634765625,17.941699981689453,SE,Stockholm,BMA
2703,Dala Airport,60.422001,15.5152,SE,Borlange,BLE
2706,Linköping City Airport,58.4062004089,15.680500030500001,SE,Linköping,LPI
2707,Norrköping Airport,58.586299896240234,16.250600814819336,SE,Norrköping,NRK
2708,Torsby Airport,60.1576,12.9913,SE,Torsby,TYF
2710,Visby Airport,57.662799835205,18.346200942993,SE,Visby,VBY
2711,Ängelholm-Helsingborg Airport,56.29610061645508,12.847100257873535,SE,Ängelholm,AGH
2713,Storuman Airport,64.960899,17.6966,SE,Storuman,SQO
2716,Hemavan Airport,65.806099,15.0828,SE,Hemavan,HMV
2739,Rostock-Laage Airport,53.9182014465,12.278300285299999,DE,Rostock,RLG
2757,Liepāja International Airport,56.51750183105469,21.096900939941406,LV,Liepāja,LPX
2759,Ventspils International Airport,57.35779953,21.5442008972,LV,Ventspils,VNT
2760,Kaunas International Airport,54.96390151977539,24.084800720214844,LT,Kaunas,KUN
2762,Palanga International Airport,55.973201751708984,21.093900680541992,LT,Palanga,PLQ
2772,Bram Fischer International Airport,-29.092699,26.302401,ZA,Bloemfontain,BFN
2779,Ben Schoeman Airport,-33.035599,27.825899,ZA,East London,ELS
2783,George Airport,-34.0056,22.378902,ZA,George,GRJ
2794,Kimberley Airport,-28.802799224900003,24.7651996613,ZA,Kimberley,KIM
2795,Kruger Mpumalanga International Airport,-25.3831996918,31.1056003571,ZA,Mpumalanga,MQP
2800,Lanseria International Airport,-25.938499,27.9261,ZA,Johannesburg,HLA
2808,Malamala Airport,-24.818099975585938,31.544599533081055,ZA,Malamala,AAM
2809,Margate Airport,-30.8574008942,30.343000412,ZA,Margate,MGH
2812,Mmabatho International Airport,-25.798400878900004,25.548000335699996,ZA,Mafeking,MBD
2820,Chief Dawid Stuurman International Airport,-33.984901,25.6173,ZA,Gqeberha (Port Elizabeth),PLZ
2821,Plettenberg Bay Airport,-34.08816,23.328723,ZA,Plettenberg Bay,PBZ
2822,Hendrik Van Eck Airport,-23.937200546299998,31.1553993225,ZA,Phalaborwa,PHW
2823,Pietersburg Municipal Airport,-23.9260997772,29.4843997955,ZA,Polokwane,
2825,Pietermaritzburg Airport,-29.649000167799997,30.3987007141,ZA,Pietermaritzburg,PZB
2827,Polokwane International Airport,-23.845269,29.458615,ZA,Polokwane,PTG
2831,Richards Bay Airport,-28.740999221800003,32.0920982361,ZA,Richards Bay,RCB
2847,Pierre Van Ryneveld Airport,-28.39909935,21.260200500499998,ZA,Upington,UTN
2848,K. D. Matanzima Airport,-31.546363184900002,28.6733551025,ZA,Mthatha,UTT
2860,P G Matante Intl,-21.15914,27.468545,BW,Francistown,FRW
2861,Jwaneng Airport,-24.602301,24.691,BW,Jwaneng,JWA
2862,Kasane Airport,-17.832899,25.162399,BW,Kasane,BBK
2863,Maun Airport,-19.97260093688965,23.431100845336914,BW,Maun,MUB
2866,Selebi Phikwe Airport,-22.0583,27.8288,BW,Selebi Phikwe,PKW
2868,Maya-Maya Airport,-4.251699924468994,15.253000259399414,CG,Brazzaville,BZV
30920,Ngot Nzoungou Airport,-4.20635,12.6599,CG,Dolisie,DIS
2871,Antonio Agostinho-Neto International Airport,-4.81603,11.8866,CG,Pointe Noire,PNR
2873,Bangui M'Poko International Airport,4.39847993850708,18.518800735473633,CF,Bangui,BGF
2875,Bata Airport,1.90547,9.80568,GQ,Bata,BSG
2876,Malabo Airport,3.755270004272461,8.708720207214355,GQ,Malabo,SSG
2877,RAF Ascension Island,-7.9696,-14.3937,SH,Cat Hill,ASI
2879,Sir Charles Gaetan Duval Airport,-19.7577,63.361,MU,Port Mathurin,RRG
2882,Douala International Airport,4.0060801506,9.719479560849999,CM,Douala,DLA
2883,Salak Airport,10.451399803161621,14.257399559020996,CM,Maroua,MVR
2885,N'Gaoundéré Airport,7.3570098876953125,13.559200286865234,CM,N'Gaoundéré,NGE
2886,Garoua International Airport,9.33588981628418,13.370100021362305,CM,Garoua,GOU
2889,Yaoundé Airport,3.8360400199890137,11.523500442504883,CM,Yaoundé,YAO
2890,Yaoundé Nsimalen International Airport,3.722559928894043,11.553299903869629,CM,Yaoundé,NSI
2893,Harry Mwanga Nkumbula International Airport,-17.8218,25.822701,ZM,Livingstone,LVI
2895,Mfuwe Airport,-13.258899688720703,31.936599731445312,ZM,Mfuwe,MFU
2897,Simon Mwansa Kapwepwe International Airport,-12.998512,28.664047,ZM,Ndola,NLA
2901,Prince Said Ibrahim International Airport,-11.5337,43.2719,KM,Moroni,HAH
2902,Mohéli Bandar Es Eslam Airport,-12.2981,43.766399,KM,Fomboni,NWA
2903,Ouani Airport,-12.131047,44.430044,KM,Ouani,AJN
2904,Dzaoudzi Pamandzi International Airport,-12.809319,45.281815,YT,Dzaoudzi,DZA
2906,Pierrefonds Airport,-21.320899963378906,55.42499923706055,RE,St Pierre,ZSE
2909,Miandrivazo Airport,-19.562799,45.450802,MG,Miandrivazo,ZVA
2910,Sainte Marie Airport,-17.093901,49.8158,MG,Vohilava,SMS
2911,Toamasina Ambalamanasy Airport,-18.109501,49.392502,MG,Toamasina,TMM
2912,Morondava Airport,-20.2847,44.3176,MG,Morondava,MOQ
2913,Arrachart Airport,-12.3494,49.291698,MG,Antisiranana,DIE
2914,Mananara Nord Airport,-16.16390037536621,49.773799896240234,MG,Mananara Nord,WMR
2917,Antsirabe Airport,-14.9994,50.320202,MG,Antsirabe,ANM
2918,Analalava Airport,-14.629514,47.763555,MG,Analalava,HVA
2919,Amborovy Airport,-15.666842,46.351233,MG,Mahajanga,MJN
2920,Fascene Airport,-13.3121,48.3148,MG,Nosy Be,NOS
2921,Besalampy Airport,-16.74453,44.482484,MG,Besalampy,BPY
2922,Maroantsetra Airport,-15.437742,49.689081,MG,Maroantsetra,WMN
2923,Sambava Airport,-14.2786,50.174702,MG,Sambava,SVB
2924,Vohemar Airport,-13.3758,50.0028,MG,Vohemar,VOH
2925,Ambalabe Airport,-14.898799896240234,47.993900299072266,MG,Antsohihy,WAI
2927,Tôlanaro Airport,-25.038099,46.9561,MG,Tôlanaro,FTU
2928,Fianarantsoa Airport,-21.441601,47.111698,MG,Fianarantsoa,WFI
2930,Manakara Airport,-22.119699,48.021702,MG,Manakara,WVK
2931,Mananjary Airport,-21.201799,48.358299,MG,Mananjary,MNJ
2932,Morombe Airport,-21.753837,43.374753,MG,Morombe,MXM
2933,Toliara Airport,-23.3834,43.7285,MG,Toliara,TLE
2934,Mbanza Congo Airport,-6.269899845123291,14.246999740600586,AO,Mbanza Congo,SSY
2936,Cabinda Airport,-5.59699010848999,12.188400268554688,AO,Cabinda,CAB
30813,Catumbela Airport,-12.4792,13.4869,AO,Catumbela,CBT
2937,Dundo Airport,-7.400889873504639,20.818500518798828,AO,Chitato,DUE
2938,Ngjiva Pereira Airport,-17.0435009003,15.683799743700002,AO,Ngiva,VPE
2939,Nova Lisboa Airport,-12.808899879455566,15.760499954223633,AO,Huambo,NOV
2944,Malanje Airport,-9.525090217590332,16.312400817871094,AO,Malanje,MEG
2945,Menongue Airport,-14.657600402832031,17.71980094909668,AO,Menongue,SPP
2946,Welwitschia Mirabilis International Airport,-15.2612,12.1468,AO,Moçâmedes,MSZ
2947,Negage Airport,-7.754509925842285,15.287699699401855,AO,Negage,GXG
2950,Soyo Airport,-6.141089916229248,12.371800422668457,AO,Soyo,SZA
2952,Lubango Airport,-14.924699783325195,13.574999809265137,AO,Lubango,SDD
2957,Koulamoutou Mabimbi Airport,-1.1846100091934,12.441300392151,GA,Koulamoutou,KOU
2958,Mouilla Ville Airport,-1.845139980316162,11.056699752807617,GA,Mouila,MJL
2959,Oyem Airport,1.5431100130081177,11.581399917602539,GA,Oyem,OYE
2963,Port Gentil Airport,-0.7117390036582947,8.754380226135254,GA,Port Gentil,POG
2965,Makokou Airport,0.5792109966278076,12.890899658203125,GA,Makokou,MKU
2966,Libreville Leon M'ba International Airport,0.458600014448,9.412280082699999,GA,Libreville,LBV
2967,M'Vengue El Hadj Omar Bongo Ondimba International Airport,-1.6561599969863892,13.437999725341797,GA,Franceville,MVB
2968,Principe Airport,1.66294,7.41174,ST,São Tomé & Príncipe,PCP
2969,São Tomé International Airport,0.378175,6.71215,ST,São Tomé,TMS
2970,Beira Airport,-19.79640007019043,34.90760040283203,MZ,Beira,BEW
2971,Chimoio Airport,-19.15130043029785,33.42900085449219,MZ,Chimoio,VPY
2972,Inhambane Airport,-23.8764,35.408501,MZ,Inhambane,INH
2973,Lichinga Airport,-13.274,35.2663,MZ,Lichinga,VXC
2980,Nampula Airport,-15.105600357055664,39.28179931640625,MZ,Nampula,APL
2981,Pemba Airport,-12.991762161254883,40.52401351928711,MZ,Pemba / Porto Amelia,POL
2982,Quelimane Airport,-17.855499267578125,36.86909866333008,MZ,Quelimane,UEL
2984,Chingozi Airport,-16.104799270629883,33.640201568603516,MZ,Tete,TET
2986,Vilankulo Airport,-22.018400192260742,35.31330108642578,MZ,Vilanculo,VNX
2994,Praslin Airport,-4.31929,55.691399,SC,Grand Anse,PRI
2996,Abeche Airport,13.847,20.844299,TD,Abeche,AEH
2997,Moundou Airport,8.62441,16.0714,TD,Moundou,MQQ
3000,Joshua Mqabuko Nkomo International Airport,-20.017401,28.617901,ZW,Bulawayo,BUQ
3004,Victoria Falls International Airport,-18.09589958190918,25.839000701904297,ZW,Victoria Falls,VFA
3015,Chileka International Airport,-15.679100036621094,34.9739990234375,MW,Blantyre,BLZ
3018,Lilongwe International Airport,-13.7894001007,33.78099823,MW,Lilongwe,LLW
3020,Mzuzu Airport,-11.444700241088867,34.01179885864258,MW,Mzuzu,ZZU
3022,Moshoeshoe I International Airport,-29.462299346923828,27.552499771118164,LS,Maseru,MSU
3029,Luderitz Airport,-26.687400817871094,15.242899894714355,NA,Luderitz,LUD
3031,Ondangwa Airport,-17.878201,15.9526,NA,Ondangwa,OND
3032,Oranjemund Airport,-28.5847,16.446699,NA,Oranjemund,OMD
3035,Rundu Airport,-17.956499099731,19.719400405884,NA,Rundu,NDU
3037,Walvis Bay Airport,-22.9799,14.6453,NA,Walvis Bay,WVB
3038,Eros Airport,-22.612199783325195,17.080400466918945,NA,Windhoek,ERS
3044,Bandundu Airport,-3.31132,17.381701,CD,Bandundu,FDU
3045,Kikwit Airport,-5.03577,18.785601,CD,Kikwit,KKW
3046,Mbandaka Airport,0.0226000007242,18.2887001038,CD,Mbandaka,MDK
3047,Gbadolite Airport,4.25321,20.9753,CD,Gbadolite,BDT
3048,Gemena Airport,3.2353699207299997,19.771299362199997,CD,Gemena,GMA
3052,Bangoka International Airport,0.481638997793,25.3379993439,CD,Kisangani,FKI
3053,Matari Airport,2.8276100158691406,27.588300704956055,CD,,IRP
3054,Bunia Airport,1.5657199621200562,30.220800399780273,CD,,BUX
3057,Goma International Airport,-1.6708099842071533,29.238500595092773,CD,Goma,GOM
3058,Kindu Airport,-2.91917991638,25.915399551399997,CD,Kindu,KND
3059,Lubumbashi International Airport,-11.5913000107,27.5308990479,CD,Lubumbashi,FBM
3060,Kolwezi Airport,-10.765899658203125,25.505699157714844,CD,,KWZ
3061,Kalemie Airport,-5.8755598068237305,29.25,CD,,FMI
3063,Kananga Airport,-5.90005016327,22.4692001343,CD,Kananga,KGA
3064,Mbuji Mayi Airport,-6.121240139010001,23.569000244099996,CD,Mbuji Mayi,MJM
3067,Gao Airport,16.2484,-0.005456,ML,,GAQ
3068,Kayes Dag Dag Airport,14.4812,-11.4044,ML,,KYS
3069,Mopti Ambodédjo International Airport,14.5128,-4.07956,ML,Sévaré,MZI
3071,Timbuktu Airport,16.730499,-3.00758,ML,Timbuktu,TOM
3079,El Hierro Airport,27.8148,-17.8871,ES,El Hierro Island,VDE
3080,La Palma Airport,28.626499,-17.7556,ES,"Sta Cruz de la Palma, La Palma Island",SPC
3084,Tenerife Norte-Ciudad de La Laguna Airport,28.4827,-16.341499,ES,Tenerife,TFN
3093,Melilla Airport,35.2798,-2.95626,ES,Melilla,MLN
31728,Bo Airport,7.9444,-11.761,SL,Bo,KBS
31741,Kenema Airport,7.896364,-11.174126,SL,Kenema,KEN
32689,Yengema Airport,8.610469818115234,-11.04539966583252,SL,Yengema,WYE
3097,Osvaldo Vieira International Airport,11.894800186157227,-15.65369987487793,GW,Bissau,OXB
3098,Spriggs Payne Airport,6.289060115814209,-10.758700370788574,LR,Monrovia,MLW
3101,Al Massira Airport,30.322478,-9.412003,MA,Agadir (Temsia),AGA
3102,Tan Tan Airport,28.448200225830078,-11.161299705505371,MA,Tan Tan,TTA
3103,Fes Saïss International Airport,33.927299,-4.97796,MA,Saïss,FEZ
3105,Moulay Ali Cherif Airport,31.9475002289,-4.39833021164,MA,Errachidia,ERH
3107,Oujda Angads Airport,34.789558,-1.926041,MA,Ahl Angad,OUD
3108,Smara Airport,26.731987,-11.683655,EH,Smara,SMW
3109,Rabat-Salé Airport,34.051498,-6.75152,MA,Rabat,RBA
3110,Dakhla Airport,23.7183,-15.932,EH,Dakhla,VIL
3111,Essaouira-Mogador Airport,31.397499,-9.68167,MA,Essaouira,ESU
3112,Hassan I Airport,27.142467,-13.224947,EH,El Aaiún,EUN
3114,Nador Al Aaroui International Airport,34.9888,-3.02821,MA,Al Aaroui,NDR
3115,Menara Airport,31.606899261499997,-8.03629970551,MA,Marrakech,RAK
3117,Ouarzazate Airport,30.9391002655,-6.909430027010001,MA,Ouarzazate,OZZ
319715,Golog Maqên Airport,34.418066,100.301144,CN,Golog (Maqên),GMQ
3119,Cherif Al Idrissi Airport,35.177101135253906,-3.83951997756958,MA,Al Hoceima,AHU
3121,Tangier Ibn Battuta Airport,35.731741,-5.921459,MA,Tangier,TNG
3122,Ziguinchor Airport,12.5556,-16.281799,SN,Ziguinchor,ZIG
3123,Cap Skirring Airport,12.39533,-16.748,SN,Cap Skirring,CSK
31879,Ouro Sogui Airport,15.5936,-13.3228,SN,Ouro Sogui,MAX
3126,Saint Louis Airport,16.049814,-16.461039,SN,Saint Louis,XLS
3129,Tambacounda Airport,13.736800193786621,-13.65310001373291,SN,Tambacounda,TUD
3138,Nouadhibou International Airport,20.9330997467041,-17.030000686645508,MR,Nouadhibou,NDB
3146,Conakry International Airport,9.57689,-13.612,GN,Conakry,CKY
3151,Rabil Airport,16.136499404907227,-22.888900756835938,CV,Rabil,BVC
3152,Maio Airport,15.155900001525879,-23.213699340820312,CV,Vila do Maio,MMO
3153,Praia International Airport,14.924500465393066,-23.493499755859375,CV,Praia,RAI
3154,Preguiça Airport,16.588852,-24.284132,CV,Preguiça,SNE
3155,São Pedro Airport,16.8332,-25.0553,CV,São Pedro,VXE
3159,Arba Minch Airport,6.0393900871276855,37.59049987792969,ET,,AMH
3160,Axum Airport,14.1468,38.7728,ET,Axum,AXU
3161,Bahir Dar Airport,11.6081,37.321602,ET,Bahir Dar,BJR
3162,Aba Tenna Dejazmach Yilma International Airport,9.624699592590332,41.85419845581055,ET,Dire Dawa,DIR
3163,Gambela Airport,8.12876,34.563099,ET,Gambela,GMB
3164,Gondar Airport,12.5199,37.433998,ET,Azezo,GDQ
3165,Gode Airport,5.93513011932,43.5786018372,ET,Gode,GDE
313314,Wilwal International Airport,9.3325,42.9121,ET,Jijiga,JIJ
3166,Jimma Airport,7.66609001159668,36.81660079956055,ET,Jimma,JIM
30612,Kebri Dahar Airport,6.732577,44.241339,ET,Kebri Dahar,ABK
3169,Asosa Airport,10.018500328063965,34.586299896240234,ET,Asosa,ASO
3170,Bujumbura Melchior Ndadaye International Airport,-3.32402,29.318501,BI,Bujumbura,BJM
3171,Egal International Airport,9.513207,44.082389,SO,Hargeisa,HGA
3172,Berbera Airport,10.385035,44.936723,SO,Berbera,BBO
31899,Aden Adde International Airport,2.0144400596618652,45.3046989440918,SO,Mogadishu,MGQ
3175,El Alamein International Airport,30.930326,28.463076,EG,El Alamein,DBB
3176,El Arish International Airport,31.078565,33.836791,EG,El Arish,AAC
3177,Asyut International Airport,27.050818,31.016309,EG,Asyut,ATZ
3180,Borj El Arab International Airport,30.93249,29.696437,EG,Alexandria,HBE
3181,Abu Simbel Airport,22.367657,31.609962,EG,Abu Simbel,ABS
3191,Luxor International Airport,25.674629,32.700012,EG,Luxor,LXR
3192,Marsa Alam International Airport,25.555548,34.59245,EG,Marsa Alam,RMF
3193,Marsa Matruh International Airport,31.338225,27.217577,EG,Marsa Matruh,MUH
300893,Suhaj Mubarak International Airport,26.339115,31.737624,EG,Suhaj,HMB
3199,Aswan International Airport,23.9643993378,32.8199996948,EG,Aswan,ASW
3200,Taba International Airport,29.594496,34.775752,EG,Taba,TCP
3202,Asmara International Airport,15.291899681091309,38.910701751708984,ER,Asmara,ASM
3203,Massawa International Airport,15.670000076293945,39.37009811401367,ER,Massawa,MSW
3204,Assab International Airport,13.071800231933594,42.64500045776367,ER,Asab,ASA
300863,Huai'an Lianshui International Airport,33.790833,119.125,CN,Huai'an,HIA
28481,Amboseli Airport,-2.645050048828125,37.25310134887695,KE,Amboseli National Park,ASV
3205,Eldoret International Airport,0.4044579863548279,35.23889923095703,KE,Eldoret,EDL
3208,Kisumu Airport,-0.0861390009522438,34.72890090942383,KE,Kisumu,KIS
3210,Lokichoggio Airport,4.20412015914917,34.348201751708984,KE,Lokichoggio,LKG
3212,Manda Airport,-2.252431,40.912892,KE,Lamu,LAU
31988,Malindi Airport,-3.2293100357055664,40.10169982910156,KE,Malindi,MYD
31594,Mara Serena Lodge Airstrip,-1.406111,35.008057,KE,Masai Mara,MRE
3215,Nairobi Wilson Airport,-1.321720004081726,36.81480026245117,KE,Nairobi,WIL
32066,Nanyuki Airport,-0.062399,37.041008,KE,Nanyuki,NYK
3217,Wajir Airport,1.73324,40.091599,KE,Wajir,WJR
3219,Sirt International Airport / Ghardabiya Airbase,31.063499,16.594999,LY,Sirt,SRX
3221,Ghat Airport,25.1455993652,10.142600059500001,LY,Ghat,GHT
3222,Kufra Airport,24.178699493408203,23.31399917602539,LY,Kufra,AKF
3223,Benina International Airport,32.096802,20.269501,LY,Benina,BEN
3225,Al Abraq International Airport,32.7887,21.9643,LY,Al Albraq,LAQ
3226,Sabha Airport,26.992452,14.466162,LY,Sabha,SEB
3232,Ghadames East Airport,30.15169906616211,9.715310096740723,LY,Ghadames,LTD
3238,Kamembe Airport,-2.462239980697632,28.907899856567383,RW,Kamembe,KME
3239,Dongola Airport,19.153900146499996,30.430099487299998,SD,Dongola,DOG
3241,El Fasher Airport,13.614899635314941,25.324600219726562,SD,El Fasher,ELF
3242,Kassala Airport,15.387499809265137,36.328800201416016,SD,Kassala,KSL
3244,Nyala Airport,12.0535,24.9562,SD,Nyala,UYL
3245,El Obeid Airport,13.153200149536133,30.23270034790039,SD,Al-Ubayyid,EBD
3246,Port Sudan New International Airport,19.4335994720459,37.234100341796875,SD,Port Sudan,PZU
3248,Malakal Airport,9.55897,31.652201,SS,Malakal,MAK
30553,Wau Airport,7.72583,27.975,SS,Wau,WUU
3250,Arusha Airport,-3.3677899837493896,36.63330078125,TZ,Arusha,ARK
3252,Dodoma Airport,-6.17044,35.752602,TZ,Dodoma,DOD
318875,Songwe Airport,-8.919942,33.273981,TZ,Mbeya,MBI
3254,Kilimanjaro International Airport,-3.42941,37.074501,TZ,Arusha,JRO
3256,Mtwara Airport,-10.336204,40.181997,TZ,Mtwara,MYW
3257,Mwanza Airport,-2.4444899559020996,32.932701110839844,TZ,Mwanza,MWZ
3259,Tanga Airport,-5.09236,39.071201,TZ,Tanga,TGT
32234,Arua Airport,3.049152,30.911714,UG,Arua,RUA
3264,Gulu Airport,2.8055601119995117,32.27180099487305,UG,Gulu,ULU
3265,Soroti Airport,1.7276899814605713,33.622798919677734,UG,Soroti,SRT
29639,Bilogai-Sugapa Airport,-3.739503,137.031183,ID,Sugapa,UGU
327608,New Ishigaki Airport,24.396389,124.245,JP,Ishigaki,ISG
301009,Jiagedaqi Airport,50.371389,124.1175,CN,Jiagedaqi,JGD
300865,Qianjiang Wulingshan Airport,29.5133333333,108.831111111,CN,Qianjiang,JIQ
323221,Jericoacoara - Comandante Ariston Pessoa Regional Airport,-2.906425,-40.357338,BR,Cruz,JJD
339959,Jinzhou Bay Airport,40.936032,121.277114,CN,"Linghai, Jinzhou",JNZ
3356,Lehigh Valley International Airport,40.651773,-75.442797,US,Allentown,ABE
3357,Abilene Regional Airport,32.4113006592,-99.68190002440001,US,Abilene,ABI
16091,Albuquerque International Sunport,35.040199,-106.609001,US,Albuquerque,ABQ
3358,Aberdeen Regional Airport,45.449100494384766,-98.42179870605469,US,Aberdeen,ABR
3359,Southwest Georgia Regional Airport,31.532946,-84.196215,US,Albany,ABY
3360,Nantucket Memorial Airport,41.25310135,-70.06020355,US,Nantucket,ACK
3361,Waco Regional Airport,31.611299514770508,-97.23049926757812,US,Waco,ACT
3362,California Redwood Coast-Humboldt County Airport,40.978101,-124.109,US,Arcata/Eureka,ACV
3363,Atlantic City International Airport,39.45759963989258,-74.57720184326172,US,Atlantic City,ACY
3365,Alexandria International Airport,31.3274,-92.549797,US,Alexandria,AEX
3368,Augusta Regional At Bush Field,33.3699,-81.9645,US,Augusta,AGS
3369,Athens Ben Epps Airport,33.94860076904297,-83.32630157470703,US,Athens,AHN
3371,Albany International Airport,42.74829864501953,-73.80169677734375,US,Albany,ALB
3375,Waterloo Regional Airport,42.557098388671875,-92.40029907226562,US,Waterloo,ALO
19275,San Luis Valley Regional Airport/Bergman Field,37.434898,-105.866997,US,Alamosa,ALS
3376,Walla Walla Regional Airport,46.09489822,-118.288002,US,Walla Walla,ALW
3377,Rick Husband Amarillo International Airport,35.219398,-101.706001,US,Amarillo,AMA
3380,Altoona Blair County Airport,40.296398,-78.32,US,Altoona,AOO
3382,Alpena County Regional Airport,45.0780983,-83.56030273,US,Alpena,APN
3383,Watertown International Airport,43.99190139770508,-76.02169799804688,US,Watertown,ART
19308,Aspen-Pitkin Co/Sardy Field,39.22320175,-106.8690033,US,Aspen,ASE
3385,Watertown Regional Airport,44.91400146,-97.15470123,US,Watertown,ATY
19321,Augusta State Airport,44.320598602299995,-69.7973022461,US,Augusta,AUG
3387,Asheville Regional Airport,35.436199,-82.541801,US,Asheville,AVL
3388,Wilkes Barre Scranton International Airport,41.338500976599995,-75.72339630130001,US,Wilkes-Barre/Scranton,AVP
3390,Kalamazoo Battle Creek International Airport,42.234901428222656,-85.5521011352539,US,Kalamazoo,AZO
3396,Bradley International Airport,41.93851,-72.688066,US,Hartford,BDL
3397,Igor I Sikorsky Memorial Airport,41.16350173950195,-73.1261978149414,US,Bridgeport,BDR
3399,Bradford Regional Airport,41.8031005859375,-78.64009857177734,US,Bradford,BFD
3400,Western Neb. Rgnl/William B. Heilig Airport,41.87400055,-103.5960007,US,Scottsbluff,BFF
3401,Boeing Field King County International Airport,47.529999,-122.302002,US,Seattle,BFI
3402,Meadows Field,35.433601,-119.056999,US,Bakersfield,BFL
3404,Greater Binghamton/Edwin A Link field,42.20869827,-75.97979736,US,Binghamton,BGM
3405,Bangor International Airport,44.8074,-68.828102,US,Bangor,BGR
19373,Hancock County-Bar Harbor Airport,44.45000076,-68.3615036,US,Bar Harbor,BHB
3406,Birmingham-Shuttlesworth International Airport,33.562901,-86.753502,US,Birmingham,BHM
3408,Billings Logan International Airport,45.807701,-108.542999,US,Billings,BIL
3409,Bismarck Municipal Airport,46.772701263427734,-100.74600219726562,US,Bismarck,BIS
3415,Raleigh County Memorial Airport,37.787300109899995,-81.1241989136,US,Beckley,BKW
19387,Mercer County Airport,37.295799,-81.207703,US,Bluefield,BLF
3416,Bellingham International Airport,48.79280090332031,-122.53800201416016,US,Bellingham,BLI
3417,Scott AFB/Midamerica Airport,38.5452,-89.835197,US,Belleville,BLV
3419,Central Illinois Regional Airport at Bloomington-Normal,40.4771,-88.915901,US,Bloomington/Normal,BMI
3421,Boise Air Terminal/Gowen Field,43.5644,-116.223,US,Boise,BOI
3423,Jack Brooks Regional Airport,29.9508,-94.020699,US,Beaumont/Port Arthur,BPT
3424,Brunswick Golden Isles Airport,31.258800506591797,-81.46649932861328,US,Brunswick,BQK
19406,Brainerd Lakes Regional Airport,46.402861,-94.129727,US,Brainerd,BRD
3425,Southeast Iowa Regional Airport,40.783199310302734,-91.12550354003906,US,Burlington,BRL
3426,Brownsville South Padre Island International Airport,25.90679931640625,-97.4259033203125,US,Brownsville,BRO
3428,Bert Mooney Airport,45.95479965209961,-112.49700164794922,US,Butte,BTM
3429,Baton Rouge Metropolitan Airport,30.533199,-91.149597,US,Baton Rouge,BTR
3430,Burlington International Airport,44.471901,-73.153297,US,South Burlington,BTV
3432,Bob Hope Airport,34.197703,-118.356378,US,Burbank,BUR
3437,Gallatin Field,45.77750015,-111.1529999,US,Bozeman,BZN
3438,Columbia Metropolitan Airport,33.938801,-81.119499,US,Columbia,CAE
3439,Akron Canton Regional Airport,40.916099548339844,-81.44219970703125,US,Akron,CAK
3442,Cedar City Regional Airport,37.70100021362305,-113.0989990234375,US,Cedar City,CDC
3443,Jack Mc Namara Field Airport,41.78020096,-124.2369995,US,Crescent City,CEC
3447,Cape Girardeau Regional Airport,37.2253,-89.570801,US,Cape Girardeau,CGI
3448,Chattanooga Metropolitan Airport (Lovell Field),35.035301,-85.203796,US,Chattanooga,CHA
3449,Charlottesville Albemarle Airport,38.13859939575195,-78.4529037475586,US,Charlottesville,CHO
3450,Charleston International Airport,32.898602,-80.040497,US,Charleston,CHS
3451,The Eastern Iowa Airport,41.884701,-91.7108,US,Cedar Rapids,CID
3452,Chippewa County International Airport,46.25080108642578,-84.47239685058594,US,Sault Ste Marie,CIU
3453,North Central West Virginia Airport,39.2966003418,-80.2281036377,US,Clarksburg,CKB
3455,Easterwood Field,30.58860016,-96.36380005,US,College Station,CLL
3456,William R Fairchild International Airport,48.120201110839844,-123.5,US,Port Angeles,CLM
3459,University of Illinois Willard Airport,40.039819,-88.276249,US,Savoy,CMI
3460,Houghton County Memorial Airport,47.168399810791016,-88.48909759521484,US,Hancock,CMX
3461,Cavern City Air Terminal,32.337501525878906,-104.26300048828125,US,Carlsbad,CNM
3463,City of Colorado Springs Municipal Airport,38.805801,-104.700996,US,Colorado Springs,COS
3464,Columbia Regional Airport,38.8181,-92.219597,US,Columbia,COU
3465,Casper-Natrona County International Airport,42.908001,-106.463997,US,Casper,CPR
3466,Corpus Christi International Airport,27.770399,-97.501198,US,Corpus Christi,CRP
3467,Yeager Airport,38.3731,-81.593201,US,Charleston,CRW
3468,Columbus Metropolitan Airport,32.516300201416016,-84.93890380859375,US,Columbus,CSG
3476,Cheyenne Regional Jerry Olson Field,41.155701,-104.811997,US,Cheyenne,
3478,Daytona Beach International Airport,29.179899,-81.058098,US,Daytona Beach,DAB
3479,Dallas Love Field,32.847099,-96.851799,US,Dallas,DAL
3481,James M Cox Dayton International Airport,39.902401,-84.219398,US,Dayton,DAY
3482,Dubuque Regional Airport,42.402,-90.709503,US,Dubuque,DBQ
3484,Dodge City Regional Airport,37.76340103149414,-99.9655990600586,US,Dodge City,DDC
3485,Decatur Airport,39.834598541259766,-88.8656997680664,US,Decatur,DEC
3489,Dothan Regional Airport,31.321300506591797,-85.44960021972656,US,Dothan,DHN
3491,Duluth International Airport,46.842098,-92.193604,US,Duluth,DLH
3496,Des Moines International Airport,41.534,-93.663101,US,Des Moines,DSM
3498,DuBois Regional Airport,41.17829895,-78.8986969,US,Dubois,DUJ
19716,Kearney Regional Airport,40.727001,-99.006798,US,Kearney,EAR
3501,Chippewa Valley Regional Airport,44.86579895019531,-91.48429870605469,US,Eau Claire,EAU
46530,Northwest Florida Beaches International Airport,30.357106,-85.795414,US,Panama City Beach,ECP
3505,Eagle County Regional Airport,39.64260101,-106.9179993,US,Eagle,EGE
3508,Elko Regional Airport,40.82490158081055,-115.79199981689453,US,Elko,EKO
3509,South Arkansas Regional Airport at Goodwin Field,33.221001,-92.813301,US,El Dorado,ELD
3510,Elmira Corning Regional Airport,42.1599006652832,-76.8916015625,US,Elmira/Corning,ELM
3512,El Paso International Airport,31.80719948,-106.3779984,US,El Paso,ELP
3515,Erie International Tom Ridge Field,42.083127,-80.173867,US,Erie,ERI
3517,Mahlon Sweet Field,44.12459945678711,-123.21199798583984,US,Eugene,EUG
3518,Evansville Regional Airport,38.0369987488,-87.5324020386,US,Evansville,EVV
3519,New Bedford Regional Airport,41.67610168457031,-70.95690155029297,US,New Bedford,EWB
3520,Coastal Carolina Regional Airport,35.0730018616,-77.04290008539999,US,New Bern,EWN
3522,Key West International Airport,24.556101,-81.759598,US,Key West,EYW
3523,Hector International Airport,46.92070007324219,-96.81580352783203,US,Fargo,FAR
3524,Fresno Yosemite International Airport,36.776199,-119.718002,US,Fresno,FAT
3525,Fayetteville Regional Airport - Grannis Field,34.991199,-78.880302,US,Fayetteville,FAY
3529,Sierra Vista Municipal Airport / Libby Army Air Field,31.587383,-110.348225,US,Fort Huachuca / Sierra Vista,FHU
3530,Flagstaff Pulliam International Airport,35.1385,-111.670998,US,Flagstaff,FLG
3532,Florence Regional Airport,34.18539810180664,-79.7238998413086,US,Florence,FLO
3535,Bishop International Airport,42.96540069580078,-83.74359893798828,US,Flint,FNT
3536,Fort Dodge Regional Airport,42.55149841,-94.19259644,US,Fort Dodge,FOD
3541,Sioux Falls Regional Airport / Joe Foss Field,43.585463,-96.741152,US,Sioux Falls,FSD
3543,Fort Smith Regional Airport,35.336601,-94.367401,US,Fort Smith,FSM
3547,Fort Wayne International Airport,40.9785,-85.195099,US,Fort Wayne,FWA
41534,Jalal-Abad Airport,40.944401,72.977798,KG,Jalal-Abad,
19929,Northeast Wyoming Regional Airport,44.3489,-105.539001,US,Gillette,GCC
3550,Garden City Regional Airport,37.9275016785,-100.723999023,US,Garden City,GCK
3551,Grand Canyon National Park Airport,35.9524,-112.147003,US,Grand Canyon - Tusayan,GCN
3552,Spokane International Airport,47.6199,-117.533997,US,Spokane,GEG
